     2.10           OBSERVATION DATA    G (GPS)             RINEX VERSION / TYPE
teqc  2002Mar14                         20101013 04:51:22UTCPGM / RUN BY / DATE
Linux 2.0.36|Pentium II|gcc -static|Linux|486/DX+           COMMENT
teqc  2002Mar14     GSI, JAPAN          20101011 06:33:09UTCCOMMENT
0728                                                        MARKER NAME
GSI, JAPAN          GEOSPATIAL INFORMATION AUTHORITY OF JAPAOBSERVER / AGENCY
00000               TPS NETG3           3.4 EG3 Jul,02,2010 REC # / TYPE / VERS
                    TRM29659.00     GSI                     ANT # / TYPE
 -3585816.5935  4190366.7164  3193080.7964                  APPROX POSITION XYZ
        0.0000        0.0000        0.0000                  ANTENNA: DELTA H/E/N
     1     1                                                WAVELENGTH FACT L1/2
     6    L1    C1    L2    P2    S1    S2                  # / TYPES OF OBSERV
    30.0000                                                 INTERVAL
teqc windowed: start @ 2010 Oct 11 00:00:00.000             COMMENT
teqc windowed:  end  @ 2010 Oct 11 23:59:59.000             COMMENT
  2010    10    11     0     0    0.0000000     GPS         TIME OF FIRST OBS
                                                            END OF HEADER
 10 10 11  0  0  0.0000000  0 10G 6G14G32G16G 3G31G19G21G23G29
 109280411.64146  20795366.769    85153569.82646  20795363.9374         41.5004
        41.0004
 129554918.48041  24653490.319   100951870.64041  24653489.7444          9.9004
        10.3004
 132957676.11142  25301011.168   103603372.20742  25301010.7574         12.4004
        12.9004
 110048910.93446  20941612.464    85752397.12046  20941607.8844         40.8004
        40.7004
 113956445.24145  21685188.236    88797235.53745  21685184.9704         35.4004
        35.6004
 111385918.98947  21196034.894    86794222.93647  21196030.8324         42.8004
        42.9004
 129738314.41343  24688378.465   101094787.52243  24688373.6114         19.2004
        19.0004
 127618344.43343  24284959.671    99442868.42343  24284956.2054         19.4004
        19.3004
 118691676.62745  22586274.329    92487021.48745  22586268.1524         30.3004
        30.3004
 129527361.97743  24648240.120   100930405.54843  24648236.7904         20.6004
        20.5004
 10 10 11  0  0 30.0000000  0 10G 6G14G32G16G 3G31G19G21G23G29
 109193783.02046  20778881.616    85086066.99946  20778879.2734         40.9004
        41.1004
 129640504.88642  24669776.680   101018561.14641  24669776.4474         12.5004
        10.3004
 132985748.93841  25306354.504   103625247.10341  25306352.5614         11.4004
        11.4004
 110023810.52946  20936835.900    85732838.35546  20936831.6364         40.7004
        41.0004
 113836383.78545  21662340.911    88703681.16745  21662338.3584         35.7004
        35.8004
 111381903.46847  21195270.865    86791093.94047  21195266.7604         42.9004
        42.9004
 129595254.43442  24661154.081   100983312.22243  24661150.4584         17.8004
        18.2004
 127562419.35243  24274317.936    99399290.42443  24274314.1044         19.8004
        19.9004
 118598927.29345  22568624.823    92414749.27645  22568619.4564         30.4004
        30.4004
 129600178.61643  24662097.430   100987145.70343  24662093.9754         20.6004
        20.5004
 10 10 11  0  1  0.0000000  0 10G 6G14G32G16G 3G31G19G21G23G29
 109107624.80446  20762486.478    85018930.73246  20762483.6014         41.3004
        41.3004
 129726094.98642  24686063.381   101085254.50942  24686063.3754         12.5004
        13.0004
 133013788.95341  25311689.637   103647096.42441  25311688.6934         11.4004
        11.4004
 109998916.94646  20932098.728    85713440.76146  20932094.5994         41.0004
        41.1004
 113716670.47545  21639560.502    88610398.07545  21639557.9384         35.6004
        35.8004
 111378217.71847  21194569.598    86788221.91147  21194565.5434         42.9004
        42.8004
 129452268.97142  24633946.123   100871894.96443  24633940.8474         17.8004
        18.2004
 127506813.09243  24263735.992    99355960.87143  24263731.9624         19.8004
        19.9004
 118506666.70245  22551068.071    92342857.90645  22551062.2314         30.7004
        30.7004
 129673129.25143  24675979.077   101043990.25043  24675975.8764         20.8004
        20.7004
 10 10 11  0  1 30.0000000  0 10G 6G14G32G16G 3G31G19G21G23G29
 109021936.93646  20746180.732    84952160.95846  20746177.6714         41.0004
        41.5004
 129811685.01342  24702351.497   101151947.80942  24702350.9984         14.2004
        13.0004
 133041792.44142  25317019.057   103668917.26642  25317018.8944         13.3004
        13.1004
 109974228.04846  20927400.723    85694202.65246  20927396.4954         41.0004
        40.9004
 113597306.09745  21616846.107    88517386.87346  21616843.6714         35.9004
        36.1004
 111374861.37247  21193930.870    86785606.55247  21193927.0994         42.9004
        43.0004
 129309359.41043  24606751.269   100760536.86443  24606746.2334         18.7004
        18.2004
 127451526.37243  24253215.484    99312880.31643  24253211.3854         20.1004
        20.1004
 118414895.82445  22533604.667    92271348.11145  22533598.7134         30.7004
        30.8004
 129746210.71643  24689886.328   101100936.78543  24689883.3464         20.0004
        20.0004
 10 10 11  0  2  0.0000000  0 10G 6G14G32G16G 3G31G19G21G23G29
 108936721.09546  20729964.673    84885758.99846  20729961.9994         41.4004
        41.5004
 129897272.73442  24718638.249   101218639.31742  24718636.6704         14.2004
        14.7004
 133069757.29242  25322341.196   103690707.99942  25322339.3554         13.3004
        13.1004
 109949743.02246  20922741.366    85675123.40446  20922737.0054         40.9004
        40.7004
 113478293.02645  21594198.643    88424649.41946  21594195.9254         35.9004
        36.1004
 111371835.52247  21193355.105    86783248.73247  21193351.0744         43.0004
        43.3004
 129166528.42443  24579570.385   100649240.00243  24579566.3954         20.6004
        20.6004
 127396561.32843  24242755.727    99270050.42043  24242752.3504         20.6004
        20.6004
 118323617.07445  22516234.887    92200221.80745  22516228.9754         30.8004
        30.8004
 129819420.53043  24703817.901   101157983.34443  24703814.8494         20.0004
        20.0004
 10 10 11  0  2 30.0000000  0 10G 6G14G32G16G 3G31G19G21G23G29
 108851974.57046  20713837.942    84819722.74446  20713835.1724         41.6004
        41.7004
 129982851.58142  24734922.374   101285323.90842  24734921.9234         15.5004
        14.7004
 133097677.14242  25327653.177   103712463.69642  25327653.3144         12.8004
        13.0004
 109925457.02246  20918119.932    85656199.23846  20918115.5284         40.7004
        40.8004
 113359629.41646  21571617.408    88332184.27646  21571615.5684         36.1004
        36.2004
 111369137.19447  21192841.585    86781146.12347  21192837.5964         43.1004
        43.3004
 129023774.53843  24552405.701   100538003.23243  24552400.9514         20.6004
        20.6004
 127341916.08143  24232357.222    99227469.68943  24232353.8064         20.6004
        20.6004
 118232828.77945  22498958.233    92129477.66845  22498952.7784         31.1004
        31.1004
 129892752.49343  24717772.196   101215125.02043  24717769.5354         18.9004
        18.9004
 10 10 11  0  3  0.0000000  0 10G 6G14G32G16G 3G31G19G21G23G29
 108767701.35146  20697801.078    84754055.30046  20697798.4684         41.3004
        41.6004
 130068421.72142  24751206.803   101352001.69942  24751205.8624         15.5004
        15.1004
 133125552.29441  25332957.472   103734184.56242  25332957.9694         11.6004
        13.0004
 109901371.57546  20913536.685    85637431.34946  20913532.1534         40.6004
        40.9004
 113241320.44846  21549104.041    88239995.47746  21549102.0684         36.2004
        36.3004
 111366770.18447  21192391.329    86779301.68547  21192387.2604         42.9004
        42.9004
 128881103.11043  24525256.101   100426830.70643  24525251.7844         19.2004
        19.2004
 127287595.14843  24222019.712    99185141.67343  24222017.4724         20.5004
        20.6004
 118142535.59045  22481776.017    92059119.34245  22481770.9314         31.3004
        31.2004
 129966206.70743  24731749.913   101272362.02443  24731746.9024         18.9004
        18.9004
 10 10 11  0  3 30.0000000  0 10G 6G14G32G16G 3G31G19G21G23G29
 108683903.70246  20681854.924    84688758.43446  20681852.6114         41.7004
        41.6004
 130153981.78942  24767488.282   101418671.65842  24767487.0284         14.4004
        15.1004
 133153381.03141  25338253.758   103755869.24441  25338253.1174         11.6004
        11.5004
 109877486.95246  20908991.381    85618819.95046  20908987.0704         40.8004
        41.0004
 113123368.98146  21526658.567    88148085.24846  21526656.6254         36.1004
        36.2004
 111364736.13547  21192004.293    86777716.69547  21192000.2754         42.7004
        43.0004
 128738517.52743  24498123.238   100315725.04043  24498118.7944         19.2004
        19.2004
 127233601.26843  24211746.505    99143068.51043  24211743.0614         21.2004
        21.4004
 118052740.85445  22464688.400    91989149.41645  22464683.4794         31.4004
        31.5004
 130039781.98343  24745751.405   101329693.27843  24745748.2634         18.9004
        18.6004
 10 10 11  0  4  0.0000000  0 10G 6G14G32G16G 3G31G19G21G23G29
 108600583.52746  20665999.617    84623833.62146  20665997.1104         41.4004
        41.7004
 130239529.74842  24783767.807   101485332.16442  24783767.2584         14.4004
        13.9004
 133181161.54941  25343539.889   103777516.33441  25343538.8544         10.1004
        11.5004
 109853802.47446  20904484.517    85600364.50446  20904480.2304         40.6004
        40.8004
 113005777.72746  21504282.072    88056455.69446  21504279.2444         36.2004
        36.2004
 111363036.29547  21191680.667    86776392.12947  21191676.7744         42.7004
        43.1004
 128596020.93443  24471006.873   100204688.75043  24471002.3764         19.7004
        19.7004
 127179937.02043  24201533.530    99101252.19543  24201529.8104         21.2004
        21.4004
 117963447.50645  22447696.678    91919570.18745  22447691.5934         31.6004
        31.7004
 130113476.58643  24759774.565   101387117.51743  24759771.5814         20.3004
        18.6004
 10 10 11  0  4 30.0000000  0 10G 6G14G32G16G 3G31G19G21G23G29
 108517738.88546  20650234.731    84559279.34746  20650232.3284         41.6004
        41.8004
 130325059.78042  24800043.775   101551978.72342  24800043.2714         13.8004
        13.9004
 133208888.36241  25348815.724   103799121.58141  25348815.8254         10.1004
        10.1004
 109830313.93446  20900014.929    85582061.74046  20900010.2784         40.9004
        40.7004
 112888545.70946  21481973.903    87965106.07346  21481970.8404         36.6004
        36.6004
 111361668.50647  21191420.328    86775326.30347  21191416.2854         42.8004
        42.7004
 128453612.66743  24443906.419   100093721.31943  24443903.3994         20.4004
        20.2004
 127126601.26243  24191384.065    99059691.85643  24191380.4084         21.9004
        21.7004
 117874654.06845  22430799.980    91850380.49145  22430794.4844         31.8004
        31.8004
 130187284.68543  24773820.345   101444630.22143  24773818.1504         20.3004
        21.2004
 10 10 11  0  5  0.0000000  0 10G 6G14G32G16G 3G31G19G21G23G29
 108435371.76946  20634560.895    84495097.17946  20634558.3574         41.5004
        41.7004
 130410570.17942  24816315.338   101618609.94642  24816316.4524         13.8004
        12.5004
 133236559.77541  25354081.805   103820683.65141  25354081.9044          8.4004
        10.1004
 109807021.24646  20895582.389    85563911.59046  20895578.1734         40.8004
        40.8004
 112771675.56446  21459733.461    87874038.44046  21459731.5824         36.5004
        36.5004
 111360634.53447  21191223.737    86774520.59647  21191219.3734         43.0004
        43.0004
 128311296.09343  24416825.108    99982825.30543  24416821.0354         20.4004
        20.2004
 127073596.90243  24181297.889    99018389.75143  24181294.0424         20.7004
        21.7004
 117786363.80945  22413999.400    91781582.87945  22413993.4464         31.7004
        31.6004
 130261204.94143  24787886.556   101502230.35542  24787884.1674         18.3004
        14.3004
 10 10 11  0  5 30.0000000  0  9G 6G14G16G 3G31G19G21G23G29
 108353484.21046  20618978.397    84431288.70146  20618975.7924         41.4004
        41.4004
 130496059.23141  24832584.099   101685224.54442  24832585.4784         11.7004
        12.5004
 109783924.37146  20891187.237    85545914.01746  20891182.9624         41.0004
        40.6004
 112655170.19046  21437563.688    87783255.03346  21437560.8744         36.7004
        36.9004
 111359936.00347  21191090.648    86773976.26947  21191086.5684         42.7004
        42.9004
 128169074.61343  24389761.067    99872003.36443  24389757.3354         20.2004
        20.3004
 127020926.28943  24171275.009    98977347.71843  24171270.9054         22.0004
        21.0004
 117698579.84145  22397294.202    91713179.78445  22397288.8424         31.5004
        31.5004
 130335236.04543  24801975.497   101559916.87042  24801967.7094         18.3004
        14.3004
 10 10 11  0  6  0.0000000  0  8G 6G14G16G 3G31G19G21G23
 108272075.12146  20603486.589    84367853.05147  20603483.7184         41.8004
        42.0004
 130581522.48441  24848846.827   101751819.04041  24848848.9084         11.7004
         9.4004
 109761019.74046  20886828.499    85528066.24646  20886824.0194         40.4004
        40.7004
 112539029.52146  21415462.957    87692755.81646  21415460.3554         37.0004
        37.0004
 111359571.48547  21191021.554    86773692.21447  21191017.4214         42.5004
        42.5004
 128026948.08743  24362715.171    99761255.40843  24362710.8144         19.5004
        20.3004
 126968589.31043  24161315.591    98936565.64343  24161311.4324         22.0004
        22.2004
 117611301.58145  22380685.626    91645170.74845  22380680.3344         31.5004
        31.5004
 10 10 11  0  6 30.0000000  0  8G 6G14G16G 3G31G19G21G23
 108191147.00846  20588086.520    84304792.18146  20588083.8454         41.6004
        41.7004
 130666958.35641  24865106.138   101818392.22241  24865105.6824          8.1004
         9.4004
 109738307.95046  20882506.512    85510368.74946  20882502.1034         40.6004
        40.7004
 112423256.95846  21393431.908    87602543.43846  21393429.1524         36.9004
        37.0004
 111359542.85747  21191016.187    86773669.88947  21191011.9504         42.8004
        42.9004
 127884920.65943  24335688.406    99650584.71543  24335684.9214         19.5004
        19.4004
 126916588.48243  24151420.370    98896045.51843  24151416.2924         22.3004
        22.2004
 117524532.61245  22364174.197    91577558.56345  22364168.5904         31.3004
        31.3004
 10 10 11  0  7  0.0000000  0  8G 6G14G16G 3G31G19G21G23
 108110701.11746  20572778.066    84242107.07547  20572775.3414         41.5004
        42.1004
 130752364.515 5  24881357.405                                          34.500

 109715788.27646  20878221.197    85492820.94746  20878216.7634         40.5004
        40.4004
 112307854.85946  21371471.716    87512619.73446  21371469.0484         37.0004
        37.2004
 111359851.07247  21191074.663    86773910.04347  21191070.6464         42.8004
        42.9004
 127742994.87743  24308681.388    99539993.23043  24308677.1044         20.7004
        19.4004
 126864926.38243  24141589.098    98855789.33243  24141585.4394         22.3004
        22.5004
 117438275.20945  22347759.445    91510344.99145  22347753.9354         31.3004
        31.4004
 10 10 11  0  7 30.0000000  0  8G 6G14G16G 3G31G19G21G23
 108030739.26946  20557562.086    84179799.15147  20557559.2934         41.8004
        42.1004
 130837739.659 5  24897603.164                                          34.000

 109693460.36846  20873972.748    85475422.57946  20873967.9644         40.5004
        40.5004
 112192825.70646  21349582.245    87422986.63246  21349579.7674         37.0004
        37.0004
 111360497.82747  21191197.900    86774413.99047  21191193.5424         42.9004
        42.9004
 127601174.22343  24281694.340    99429483.64643  24281689.6684         21.7004
        21.4004
 126813605.40243  24131823.390    98815798.96743  24131818.6714         22.3004
        22.3004
 117352531.93645  22331443.418    91443532.04645  22331438.0724         31.6004
        31.7004
 10 10 11  0  8  0.0000000  0  8G 6G14G16G 3G31G19G21G23
 107951260.01747  20542437.672    84117867.27347  20542434.9764         42.0004
        42.3004
 130923078.218 5  24913843.808                                          34.000

 109671320.28546  20869759.227    85458170.56146  20869754.6824         40.2004
        40.7004
 112078168.84646  21327763.569    87333643.63346  21327761.4574         37.1004
        37.2004
 111361481.11647  21191385.020    86775180.17147  21191380.8664         42.7004
        42.6004
 127459458.35243  24254725.086    99319055.69343  24254721.1314         21.7004
        21.2004
 126762624.16143  24122121.736    98776073.31643  24122118.1214         22.1004
        22.3004
 117267302.42845  22315224.755    91377119.43945  22315219.1434         31.9004
        32.0004
 10 10 11  0  8 30.0000000  0  8G 6G14G16G 3G31G19G21G23
 107872268.08247  20527405.855    84056315.12347  20527403.1234         42.3004
        42.2004
 131008381.590 5  24930076.784                                          33.000

 109649371.02046  20865582.374    85441067.24746  20865578.1804         40.6004
        40.5004
 111963890.24046  21306016.987    87244595.37546  21306015.0514         37.2004
        37.4004
 111362805.81947  21191636.938    86776212.39347  21191633.0494         42.9004
        42.9004
 127317853.46543  24227779.049    99208714.26143  24227775.5294         20.1004
        21.2004
 126711988.90143  24112485.941    98736617.28043  24112483.3984         21.5004
        21.8004
 117182592.17445  22299105.473    91311111.43945  22299100.0534         31.9004
        31.9004
 10 10 11  0  9  0.0000000  0  8G 6G14G16G 3G31G19G21G23
 107793762.98746  20512466.858    83995142.32147  20512464.2964         41.9004
        42.0004
 131093645.761 5  24946302.270                                          32.200

 109627610.30946  20861441.346    85424110.84446  20861436.8474         40.3004
        40.2004
 111849990.28646  21284342.717    87155842.17646  21284340.5924         37.6004
        37.6004
 111364470.77847  21191953.945    86777509.74147  21191949.9994         42.7004
        43.0004
 127176360.75043  24200853.863    99098460.22843  24200850.1194         20.1004
        20.5004
 126661699.77343  24102915.898    98697430.96543  24102912.1274         21.7004
        21.8004
 117098401.50745  22283084.150    91245508.30845  22283078.5824         31.7004
        31.7004
 10 10 11  0  9 30.0000000  0  8G 6G14G16G 3G31G19G21G23
 107715745.64947  20497620.640    83934349.59247  20497617.8954         42.1004
        42.0004
 131178868.078 5  24962521.126                                          32.100

 109606036.87846  20857336.368    85407300.38146  20857332.0404         40.1004
        40.3004
 111736470.50646  21262740.363    87067385.22146  21262738.5084         37.5004
        37.6004
 111366476.36147  21192335.812    86779072.51747  21192331.3944         42.9004
        42.8004
 127034982.30343  24173949.617    98988295.26343  24173946.8734         21.7004
        21.7004
 126611757.97243  24093412.768    98658515.27843  24093409.0414         21.7004
        21.8004
 117014732.33645  22267162.201    91180311.53645  22267157.5594         31.6004
        31.7004
 10 10 11  0 10  0.0000000  0  8G 6G14G16G 3G31G19G21G23
 107638217.34147  20482867.518    83873937.93547  20482864.9804         42.2004
        42.2004
 131264046.004 5  24978728.427                                          31.400

 109584649.77446  20853266.458    85390635.10246  20853262.2284         40.5004
        40.3004
 111623333.03346  21241211.407    86979226.15746  21241209.6674         37.7004
        37.8004
 111368823.72747  21192782.419    86780901.61447  21192778.0784         42.7004
        42.9004
 126893720.66443  24147069.144    98878221.31443  24147065.0824         21.2004
        21.7004
 126562165.49143  24083975.562    98619871.79643  24083971.3054         21.1004
        21.3004
 116931587.00545  22251340.590    91115522.95945  22251334.7814         31.6004
        31.6004
 10 10 11  0 10 30.0000000  0  8G 6G14G16G 3G31G19G21G23
 107561178.12047  20468207.457    83813907.38147  20468204.6134         42.5004
        42.7004
 131349176.493 4  24994929.199                                          29.700

 109563447.17446  20849231.692    85374113.59746  20849227.5774         40.1004
        40.4004
 111510579.12146  21219754.940    86891365.97546  21219752.6104         37.8004
        37.9004
 111371512.79547  21193294.312    86782996.97247  21193289.8264         42.6004
        42.7004
 126752577.86843  24120210.083    98768239.94943  24120206.4934         21.2004
        21.2004
 126512923.45843  24074605.067    98581501.39143  24074600.9094         20.4004
        20.4004
 116848966.26845  22235617.699    91051143.14945  22235612.4434         31.6004
        31.6004
 10 10 11  0 11  0.0000000  0  8G 6G14G16G 3G31G19G21G23
 107484627.33847  20453640.190    83754257.42647  20453637.4504         42.2004
        42.4004
 131434255.671 4  25011120.159                                          29.900

 109542426.89546  20845231.558    85357734.15046  20845227.4804         40.0004
        40.3004
 111398209.58146  21198371.644    86803805.29946  21198369.4664         37.8004
        37.6004
 111374542.82747  21193870.709    86785358.02347  21193866.5194         42.5004
        42.2004
 126611554.73043  24093374.563    98658351.83643  24093370.8204         21.6004
        21.2004
 126464031.98943  24065301.743    98543404.15443  24065297.3204         20.4004
        20.4004
 116766870.78645  22219995.857    90987172.62645  22219990.4654         31.6004
        31.4004
 10 10 11  0 11 30.0000000  0  7G 6G16G 3G31G19G21G23
 107408567.44047  20439166.341    83694989.98147  20439163.7404         42.3004
        42.6004
 109521589.04746  20841266.350    85341496.86246  20841262.1854         40.0004
        39.9004
 111286226.86346  21177062.179    86716546.04346  21177060.0304         38.0004
        38.2004
 111377915.64247  21194512.736    86787986.18147  21194508.4304         42.7004
        42.7004
 126470654.98643  24066561.945    98548559.91243  24066558.4464         22.7004
        22.4004
 126415494.06243  24056064.876    98505582.41343  24056061.0144         21.7004
        21.6004
 116685303.68745  22204474.069    90923613.83545  22204468.2374         31.2004
        31.4004
 10 10 11  0 12  0.0000000  0  7G 6G16G 3G31G19G21G23
 107333000.24047  20424786.458    83636106.45647  20424783.8784         42.0004
        42.1004
 109500933.32246  20837335.678    85325401.48046  20837331.3554         40.0004
        40.0004
 111174633.90146  21155826.823    86629590.49846  21155824.5964         37.9004
        38.3004
 111381632.42747  21195219.871    86790882.35847  21195215.8534         43.1004
        43.2004
 126329881.77943  24039773.941    98438866.58243  24039770.0344         22.8004
        22.9004
 126367311.73443  24046896.267    98468037.75443  24046892.9014         22.5004
        22.6004
 116604267.17745  22189052.545    90860468.48945  22189048.4904         31.3004
        31.2004
 10 10 11  0 12 30.0000000  0  7G 6G16G 3G31G19G21G23
 107257926.38247  20410500.350    83577607.34947  20410497.8014         42.1004
        42.1004
 109480459.46146  20833439.506    85309447.81846  20833435.3814         39.8004
        39.9004
 111063433.18446  21134665.763    86542940.59146  21134663.8254         37.9004
        37.9004
 111385694.56347  21195993.189    86794047.63547  21195988.9184         42.8004
        42.7004
 126189238.28543  24013010.741    98329274.29243  24013007.0094         22.8004
        22.9004
 126319487.71343  24037796.265    98430772.30143  24037792.0444         22.5004
        22.6004
 116523763.93745  22173733.610    90797738.67245  22173728.8864         31.0004
        30.9004
 10 10 11  0 13  0.0000000  0  7G 6G16G 3G31G19G21G23
 107183344.45647  20396307.756    83519491.56747  20396305.5934         42.4004
        42.6004
 109460164.03246  20829577.655    85293633.18746  20829573.3424         39.8004
        39.7004
 110952624.14946  21113579.523    86456595.89446  21113577.3884         38.2004
        38.2004
 111390100.13547  21196831.183    86797480.52947  21196827.0464         42.9004
        42.9004
 126048724.38043  23986270.427    98219782.99243  23986268.1374         21.9004
        22.0004
 126272021.07143  24028763.715    98393785.31043  24028759.5104         23.1004
        23.3004
 116443793.16445  22158516.312    90735423.77645  22158510.9404         31.1004
        31.1004
 10 10 11  0 13 30.0000000  0  7G 6G16G 3G31G19G21G23
 107109255.13947  20382209.354    83461759.63147  20382206.6324         42.6004
        42.7004
 109440045.41946  20825749.084    85277956.33846  20825744.9214         39.7004
        39.7004
 110842208.18146  21092568.120    86370557.48946  21092565.9994         38.2004
        38.1004
 111394849.36147  21197735.197    86801181.20547  21197730.6024         42.7004
        42.3004
 125908341.99943  23959556.983    98110394.20543  23959554.0804         21.8004
        21.9004
 126224913.00043  24019798.963    98357077.75043  24019794.8654         23.5004
        23.4004
 116364356.16245  22143400.261    90673524.79245  22143394.1734         31.2004
        31.0004
 10 10 11  0 14  0.0000000  0  7G 6G16G 3G31G19G21G23
 107035662.74347  20368205.057    83404414.91047  20368202.6184         42.9004
        43.1004
 109420106.03446  20821954.471    85262419.14646  20821950.2504         39.3004
        39.3004
 110732190.30446  21071632.343    86284829.27646  21071629.9514         38.1004
        38.2004
 111399946.32847  21198705.040    86805152.84347  21198700.7554         42.5004
        42.7004
 125768096.91743  23932869.289    98001112.36143  23932866.2374         21.8004
        21.9004
 126178167.98943  24010903.872    98320653.06743  24010899.1764         22.9004
        23.4004
 116285458.04545  22128385.378    90612045.71945  22128380.8944         31.1004
        30.9004
 10 10 11  0 14 30.0000000  0  7G 6G16G 3G31G19G21G23
 106962567.65747  20354295.701    83347457.70247  20354293.0704         42.8004
        42.9004
 109400344.72946  20818193.859    85247020.71346  20818190.0264         38.9004
        39.1004
 110622571.88446  21050772.531    86199412.33446  21050770.5464         38.3004
        38.4004
 111405391.29347  21199741.181    86809395.65447  21199736.8224         42.5004
        42.7004
 125627991.21243  23906208.060    97891939.13143  23906205.3234         23.1004
        23.0004
 126131787.51943  24002078.095    98284512.45243  24002073.6054         22.9004
        22.9004
 116207099.94445  22113474.815    90550987.44445  22113470.0034         31.1004
        31.1004
 10 10 11  0 15  0.0000000  0  7G 6G16G 3G31G19G21G23
 106889970.63247  20340481.091    83290888.59347  20340478.1784         42.7004
        42.8004
 109380760.51346  20814467.492    85231760.28246  20814463.1264         39.3004
        39.3004
 110513355.37546  21029989.400    86114308.56846  21029987.2224         38.6004
        38.9004
 111411184.71647  21200843.477    86813909.98947  21200839.2774         42.3004
        42.6004
 125488027.54343  23879574.560    97782876.57243  23879570.7424         23.5004
        23.4004
 126085772.98543  23993321.549    98248656.97543  23993317.5084         23.0004
        23.4004
 116129283.81445  22098666.747    90490351.48345  22098661.9474         31.0004
        31.0004
 10 10 11  0 15 30.0000000  0  7G 6G16G 3G31G19G21G23
 106817871.89347  20326760.814    83234707.75247  20326758.2824         42.6004
        42.6004
 109361352.00546  20810774.113    85216636.76946  20810770.0304         38.9004
        38.8004
 110404541.16946  21009282.619    86029518.28646  21009280.3004         38.3004
        38.5004
 111417326.60747  21202012.747    86818695.85947  21202008.0354         42.5004
        42.6004
 125348207.83743  23852967.316    97673926.18843  23852963.5914         23.6004
        23.8004
 126040125.46143  23984635.135    98213087.48243  23984631.0934         23.5004
        22.9004
 116052011.04245  22083962.594    90430138.92245  22083957.0694         31.3004
        31.2004
 10 10 11  0 16  0.0000000  0  7G 6G16G 3G31G19G21G23
 106746269.82847  20313135.614    83178913.94547  20313132.8464         42.6004
        42.6004
 109342115.92646  20807113.326    85201647.61746  20807109.4264         38.7004
        38.6004
 110296129.41146  20988652.784    85945041.60046  20988650.2314         38.5004
        38.7004
 111423815.29247  21203247.312    86823751.95747  21203242.9904         42.6004
        42.8004
 125208532.12743  23826388.429    97565088.00943  23826384.1864         23.6004
        23.8004
 125994844.57743  23976018.785    98177803.67543  23976013.8674         22.2004
        22.9004
 115975280.76245  22069361.291    90370349.07245  22069356.3814         31.4004
        31.3004
 10 10 11  0 16 30.0000000  0  7G 6G16G 3G31G19G21G23
 106675165.02747  20299604.372    83123507.61047  20299601.9954         42.7004
        42.8004
 109323051.12046  20803485.668    85186791.91446  20803481.8294         38.9004
        38.8004
 110188121.15846  20968099.461    85860879.33946  20968097.0754         38.8004
        38.9004
 111430651.39147  21204548.160    86829078.76647  21204543.8554         42.2004
        42.4004
 125069002.80844  23799836.216    97456363.90144  23799831.1304         24.3004
        24.1004
 125949931.68543  23967471.858    98142806.61843  23967468.1104         22.9004
        22.4004
 115899094.39745  22054863.298    90310983.06045  22054858.3064         31.2004
        31.3004
 10 10 11  0 17  0.0000000  0  7G 6G16G 3G31G19G21G23
 106604557.67447  20286168.578    83068488.90247  20286165.7894         42.3004
        42.9004
 109304156.11146  20799889.832    85172068.52846  20799886.1054         38.6004
        38.6004
 110080518.01446  20947623.436    85777032.74946  20947620.7194         38.8004
        38.9004
 111437834.57747  21205915.176    86834676.03147  21205910.8764         42.3004
        42.6004
 124929621.79243  23773313.372    97347755.34943  23773308.7964         23.1004
        23.1004
 125905387.55043  23958995.156    98108096.89343  23958990.0944         22.9004
        23.1004
 115823453.27245  22040468.779    90252041.91545  22040463.6564         31.2004
        31.1004
 10 10 11  0 17 30.0000000  0  7G 6G16G 3G31G19G21G23
 106534450.31647  20272827.536    83013859.79747  20272824.6714         43.0004
        42.9004
 109285431.95346  20796326.443    85157478.27346  20796323.1204         38.8004
        38.8004
 109973323.37646  20927224.990    85693504.47246  20927222.2884         38.9004
        38.9004
 111445367.29847  21207348.699    86840545.66447  21207344.1644         42.1004
        42.3004
 124790393.21643  23746818.603    97239265.57943  23746814.5354         23.7004
        23.1004
 125861215.43643  23950589.580    98073677.08043  23950583.8024         22.7004
        23.1004
 115748360.71245  22026178.912    90193528.21645  22026174.6734         31.2004
        31.1004
 10 10 11  0 18  0.0000000  0  7G 6G16G 3G31G19G21G23
 106464842.14347  20259581.739    82959619.66547  20259578.7154         42.6004
        42.5004
 109266876.23746  20792795.441    85143019.26946  20792791.8924         38.8004
        38.7004
 109866537.68646  20906904.257    85610294.85046  20906901.5464         39.0004
        39.0004
 111453248.45647  21208848.641    86846686.80947  21208843.9134         42.4004
        42.7004
 124651318.08144  23720352.988    97130895.41244  23720350.0254         24.0004
        24.1004
 125817415.54843  23942254.633    98039547.29043  23942250.3774         21.9004
        22.0004
 115673816.74845  22011994.244    90135442.00945  22011989.3054         31.0004
        31.0004
 10 10 11  0 18 30.0000000  0  7G 6G16G 3G31G19G21G23
 106395734.36447  20246431.021    82905769.45047  20246427.9444         42.6004
        42.8004
 109248488.60646  20789296.862    85128691.24446  20789292.9194         39.0004
        38.9004
 109760162.94246  20886662.067    85527405.45346  20886659.2764         39.0004
        38.8004
 111461479.37747  21210414.774    86853100.49447  21210410.0384         42.0004
        42.2004
 124512399.28144  23693918.406    97022647.03443  23693914.0544         24.0004
        23.9004
 125773989.60843  23933991.081    98005708.87443  23933986.5754         21.9004
        22.2004
 115599823.56845  21997913.781    90077784.95245  21997908.6794         31.2004
        31.3004
 10 10 11  0 19  0.0000000  0  7G 6G16G 3G31G19G21G23
 106327126.67947  20233375.195    82852308.91647  20233372.5614         42.7004
        43.3004
 109230267.33346  20785829.657    85114492.83946  20785825.4654         39.0004
        39.0004
 109654200.50846  20866497.573    85444837.33146  20866495.5254         39.2004
        39.2004
 111470059.76347  21212047.392    86859786.48847  21212042.9994         42.4004
        42.5004
 124373638.66544  23667513.500    96914521.91844  23667508.4254         24.3004
        24.5004
 125730938.31243  23925798.952    97972162.41743  23925794.5124         22.2004
        22.2004
 115526381.97045  21983938.582    90020557.71745  21983933.4274         31.2004
        31.1004
 10 10 11  0 19 30.0000000  0  7G 6G16G 3G31G19G21G23
 106259022.06747  20220415.151    82799240.39547  20220412.4264         42.4004
        42.4004
 109212213.46446  20782393.918    85100424.89246  20782390.0934         39.2004
        39.2004
 109548653.91146  20846413.090    85362593.24046  20846410.4944         39.2004
        39.2004
 111478992.25347  21213747.443    86866746.84947  21213743.1134         42.5004
        42.4004
 124235040.89244  23641138.229    96806523.71644  23641134.1074         24.4004
        24.5004
 125688265.44843  23917678.620    97938910.87143  23917673.3474         22.4004
        22.5004
 115453495.30045  21970068.289    89963762.90745  21970063.6964         31.2004
        31.3004
 10 10 11  0 20  0.0000000  0  7G 6G16G 3G31G19G21G23
 106191419.01847  20207550.804    82746562.70047  20207548.3004         42.8004
        42.7004
 109194324.64446  20778989.649    85086485.54746  20778986.1644         39.3004
        39.1004
 109443522.75846  20826407.016    85280672.86946  20826404.8474         39.3004
        39.4004
 111488275.35047  21215513.882    86873980.41747  21215509.3894         42.5004
        42.6004
 124096606.53343  23614795.512    96698652.83643  23614791.5414         23.9004
        23.9004
 125645970.65843  23909629.725    97905953.88143  23909627.1464         21.7004
        21.8004
 115381163.59945  21956304.266    89907400.53045  21956299.9594         31.2004
        31.2004
 10 10 11  0 20 30.0000000  0  8G 6G16G 3G31G19G13G21G23
 106124319.41047  20194782.107    82694277.29947  20194779.6644         42.6004
        42.7004
 109176600.81946  20775616.808    85072674.77746  20775613.1544         39.0004
        38.9004
 109338809.89046  20806480.592    85199078.43646  20806478.5134         39.3004
        39.5004
 111497910.53547  21217347.382    86881488.34147  21217343.0774         42.1004
        42.0004
 123958339.22944  23588483.154    96590912.11644  23588479.5364         24.6004
        24.6004
 125540869.95541  23889632.237    97824052.78041  23889629.6644         11.8004
         6.9004
 125604056.04643  23901653.366    97873293.14843  23901649.9734         21.7004
        21.8004
 115309389.20645  21942645.950    89851472.41245  21942641.0074         31.3004
        31.3004
 10 10 11  0 21  0.0000000  0  8G 6G16G 3G31G19G13G21G23
 107633143.81647  20481902.019    83869984.62447  20481899.3974         42.7004
        43.1004
 110734459.68446  21072067.319    86286590.76946  21072063.8794         39.2004
        39.1004
 110809938.61746  21086427.258    86345412.51646  21086424.9994         39.4004
        39.4004
 113083316.17347  21519039.541    88116869.34747  21519035.4954         42.2004
        42.3004
 125395663.53744  23861997.042    97710905.12143  23861993.9204         24.6004
        23.8004
 127001785.28742  24167636.261    98962428.36941  24167634.2404         13.1004
        10.3004
 127137942.76043  24193542.416    99068529.54843  24193539.0464         21.7004
        21.6004
 116813594.04945  22228886.325    91023580.06845  22228881.9784         31.6004
        31.6004
 10 10 11  0 21 30.0000000  0  8G 6G16G 3G31G19G13G21G23
 107567049.29147  20469324.719    83818482.40447  20469321.9444         42.8004
        43.0004
 110717060.18246  21068756.543    86273032.71346  21068753.0614         39.2004
        39.0004
 110706064.63246  21066660.821    86264471.75946  21066658.3814         39.3004
        39.3004
 113093654.18347  21521007.118    88124924.92747  21521003.0154         42.3004
        42.5004
 125257733.82643  23835750.268    97603427.47544  23835746.1654         23.9004
        25.1004
 126887641.88842  24145914.733    98873485.48641  24145914.0344         13.2004
        10.9004
 127096790.31743  24185712.141    99036462.71343  24185707.2194         21.4004
        21.6004
 116742935.24045  22215441.056    90968521.24145  22215436.1564         31.5004
        31.4004
 10 10 11  0 22  0.0000000  0  8G 6G16G 3G31G19G13G21G23
 107501457.61747  20456843.121    83767372.01547  20456839.9884         42.5004
        43.2004
 110699821.08246  21065476.232    86259599.63646  21065472.5854         39.2004
        39.2004
 110602612.15546  21046974.407    86183859.45146  21046972.2764         39.3004
        39.6004
 113104343.84147  21523041.544    88133254.51647  21523037.2294         42.0004
        42.1004
 125119976.45044  23809535.876    97496084.09144  23809531.7844         25.5004
        25.1004
 126773865.72442  24124262.802    98784828.78941  24124261.8284         13.2004
        10.9004
 127056020.97543  24177953.234    99004694.38443  24177948.8364         21.4004
        21.7004
 116672835.97445  22202101.005    90913898.42645  22202096.5664         31.6004
        31.7004
 10 10 11  0 22 30.0000000  0  8G 6G16G 3G31G19G13G21G23
 107436367.94447  20444456.823    83716652.79647  20444453.9354         42.8004
        43.1004
 110682740.40646  21062226.069    86246290.01046  21062221.8044         39.4004
        39.1004
 110499580.99546  21027367.929    86103575.44046  21027365.9964         39.5004
        39.6004
 113115383.84646  21525142.251    88141857.10347  21525137.7914         41.9004
        42.2004
 124982392.07744  23783354.033    97388875.50944  23783350.6354         25.5004
        25.7004
 126660458.12542  24102684.154    98696459.27042  24102681.5254         14.1004
        14.2004
 127015633.84943  24170268.169    98973223.91043  24170264.3404         21.6004
        21.6004
 116603296.75845  22188868.970    90859712.00645  22188864.0064         31.8004
        31.8004
 10 10 11  0 23  0.0000000  0  8G 6G16G 3G31G19G13G21G23
 107371783.51847  20432166.790    83666327.27647  20432164.0034         43.0004
        43.0004
 110665819.79546  21059005.992    86233105.11146  21059001.9144         39.7004
        39.5004
 110396975.70946  21007842.770    86023623.26946  21007840.6374         39.6004
        39.5004
 113126777.58646  21527310.148    88150735.32247  21527305.8154         41.8004
        42.2004
 124844985.90544  23757206.798    97281805.79744  23757203.5464         25.0004
        25.0004
 126547424.31642  24081173.876    98608381.00042  24081171.4074         14.4004
        14.2004
 126975632.99143  24162655.715    98942054.41643  24162651.8504         22.0004
        21.6004
 116534321.34145  22175743.761    90805964.91045  22175737.8134         32.0004
        32.1004
 10 10 11  0 23 30.0000000  0  8G 6G16G 3G31G19G13G21G23
 107307704.39547  20419972.935    83616395.49747  20419970.1504         42.9004
        43.2004
 110649057.96346  21055816.217    86220043.93446  21055812.6184         39.7004
        39.4004
 110294797.92746  20988399.290    85944004.22646  20988397.0624         39.7004
        39.6004
 113138525.02846  21529545.948    88159889.15846  21529541.3644         41.8004
        41.9004
 124707760.11844  23731093.309    97174876.63444  23731089.5544         25.9004
        26.0004
 126434767.06942  24059735.335    98520596.16342  24059734.1874         14.4004
        14.5004
 126936019.41343  24155117.576    98911186.68243  24155113.3834         22.0004
        21.9004
 116465910.71145  22162725.220    90752657.91345  22162719.9364         32.3004
        32.2004
 10 10 11  0 24  0.0000000  0  8G 6G16G 3G31G19G13G21G23
 107244132.03747  20407875.757    83566858.60647  20407872.5394         42.5004
        42.8004
 110632455.18546  21052657.074    86207106.70046  21052653.1104         39.6004
        39.4004
 110193049.73346  20969037.129    85864719.91846  20969035.0204         39.8004
        39.7004
 113150627.85146  21531848.901    88169319.91747  21531844.4484         41.6004
        42.0004
 124570718.03344  23705015.658    97068090.62744  23705011.1534         25.9004
        25.9004
 126322489.78742  24038370.003    98433107.35542  24038367.2884         14.3004
        14.5004
 126896795.87143  24147653.307    98880622.88343  24147650.2614         21.7004
        21.9004
 116398066.97145  22149814.977    90699792.63545  22149809.1104         32.4004
        32.3004
 10 10 11  0 24 30.0000000  0  8G 6G16G 3G31G19G13G21G23
 107181064.96647  20395874.365    83517715.44147  20395871.3984         42.8004
        43.0004
 110616008.68746  21049527.219    86194291.23846  21049523.2994         39.6004
        39.5004
 110091730.26946  20949756.874    85785769.69546  20949754.1884         39.6004
        39.9004
 113163084.39247  21534219.133    88179026.29747  21534215.1264         42.0004
        42.3004
 124433860.31844  23678972.129    96961448.25844  23678968.3524         25.6004
        25.7004
 126210593.05442  24017076.403    98345915.11442  24017074.8084         14.3004
        13.9004
 126857961.78043  24140263.994    98850362.54843  24140260.3234         22.4004
        21.9004
 116330789.63045  22137012.699    90647368.71945  22137007.4884         32.4004
        32.3004
 10 10 11  0 25  0.0000000  0  8G 6G16G 3G31G19G13G21G23
 107118504.84347  20383969.539    83468967.29647  20383966.7794         43.0004
        43.1004
 110599719.26546  21046427.926    86181598.18046  21046423.8014         39.5004
        39.7004
 109990843.49546  20930558.676    85707156.62746  20930556.2254         39.7004
        39.8004
 113175896.08246  21536657.117    88189009.40746  21536653.1484         41.5004
        41.6004
 124297190.90244  23652965.026    96854952.63344  23652961.3424         26.0004
        26.1004
 126099081.34242  23995857.401    98259022.94542  23995854.9414         15.0004
        13.9004
 126819519.49243  24132948.642    98820407.50443  24132945.1404         22.5004
        22.6004
 116264081.43345  22124318.906    90595388.28745  22124313.5204         32.6004
        32.5004
 10 10 11  0 25 30.0000000  0  8G 6G16G 3G31G19G13G21G23
 107056449.37347  20372160.694    83420612.39247  20372158.0534         42.8004
        42.7004
 110583582.92846  21043357.163    86169024.39646  21043353.2124         39.6004
        39.6004
 109890387.57046  20911442.698    85628879.28946  20911440.1614         40.0004
        40.1004
 113189060.59747  21539162.407    88199267.46146  21539158.1424         42.0004
        41.7004
 124160709.00244  23626993.406    96748603.12844  23626989.3354         26.5004
        26.5004
 125987954.44342  23974709.497    98172430.60442  23974707.4354         15.0004
        15.7004
 126781467.83543  24125707.647    98790756.84943  24125704.1274         22.5004
        22.7004
 116197940.51945  22111732.860    90543849.90345  22111727.1614         32.8004
        32.7004
 10 10 11  0 26  0.0000000  0  8G 6G16G 3G31G19G13G21G23
 106994900.29547  20360448.371    83372652.08047  20360445.3384         42.9004
        43.0004
 110567600.46046  21040315.599    86156570.52446  21040311.8174         39.6004
        39.5004
 109790365.60746  20892409.138    85550940.09846  20892406.6394         40.1004
        40.3004
 113202579.85447  21541735.203    88209801.93346  21541731.0404         42.1004
        41.7004
 124024418.64044  23601058.117    96642402.85344  23601054.3674         26.6004
        26.5004
 125877216.64342  23953637.286    98086141.45742  23953634.7304         16.2004
        15.7004
 126743809.50843  24118541.355    98761412.69143  24118537.6554         22.6004
        22.7004
 116132369.68945  22099254.901    90492755.72745  22099249.3884         32.7004
        32.7004
 10 10 11  0 26 30.0000000  0  8G 6G16G 3G31G19G13G21G23
 106933857.20947  20348831.961    83325086.04647  20348829.4134         42.8004
        42.9004
 110551770.54846  21037303.503    86144235.52046  21037299.7024         39.5004
        39.5004
 109690778.17646  20873458.314    85473339.51146  20873455.8404         39.9004
        40.0004
 113216453.35646  21544374.821    88220612.43946  21544370.7184         41.4004
        41.4004
 123888321.84344  23575159.894    96536353.40744  23575155.7874         26.5004
        26.8004
 125766869.70942  23932639.830    98000156.89142  23932636.9364         16.2004
        15.9004
 126706544.73443  24111449.933    98732375.18743  24111447.0144         23.0004
        22.8004
 116067369.86745  22086885.293    90442106.49745  22086880.3294         32.8004
        32.7004
 10 10 11  0 27  0.0000000  0  8G 6G16G 3G31G19G13G21G23
 106873317.06147  20337311.829    83277911.90947  20337308.8504         42.8004
        42.6004
 110536088.94346  21034318.998    86132016.08046  21034315.4584         39.5004
        39.4004
 109591623.71546  20854589.964    85396076.30646  20854587.2394         40.1004
        40.2004
 113230678.34746  21547081.882    88231696.83146  21547077.7314         41.2004
        41.3004
 123752417.30744  23549297.965    96430453.79344  23549295.3254         26.9004
        27.0004
 125656912.92042  23911713.645    97914476.32742  23911711.0474         16.4004
        17.0004
 126669671.70643  24104433.598    98703642.94243  24104429.1584         22.8004
        23.0004
 116002938.53645  22074624.649    90391900.25345  22074619.2794         32.7004
        32.8004
 10 10 11  0 27 30.0000000  0  8G 6G16G 3G31G19G13G21G23
 106813286.06847  20325888.445    83231134.51747  20325885.3294         42.6004
        42.9004
 110520560.78846  21031364.778    86119916.21846  21031360.7624         39.5004
        39.5004
 109492909.59946  20835805.069    85319156.22346  20835802.6614         39.9004
        40.1004
 113245261.00746  21549857.291    88243059.92546  21549852.9484         41.8004
        41.8004
 123616713.46144  23523475.167    96324710.55944  23523470.0304         27.0004
        27.2004
 125547354.74642  23890866.623    97829106.36742  23890864.1634         16.4004
        17.0004
 126633197.20043  24097492.597    98675221.25343  24097488.4484         22.8004
        23.0004
 115939082.99945  22062473.375    90342142.66845  22062467.9144         32.4004
        32.3004
 10 10 11  0 28  0.0000000  0  8G 6G16G 3G31G19G13G21G23
 106753762.77247  20314561.127    83184752.72647  20314558.5404         43.1004
        42.8004
 110505183.40046  21028438.283    86107933.83646  21028434.3514         39.3004
        39.4004
 109394635.64446  20817104.340    85242579.12046  20817101.6524         40.1004
        40.2004
 113260199.70846  21552700.019    88254700.46547  21552695.5404         41.9004
        42.1004
 123481210.58344  23497689.441    96219123.90744  23497685.0184         27.4004
        27.2004
 125438196.44842  23870093.091    97744048.00442  23870091.8984         16.4004
        15.7004
 126597120.93243  24090627.494    98647109.86643  24090623.6584         23.1004
        23.0004
 115875802.45345  22050431.196    90292833.13345  22050426.5914         32.6004
        32.5004
 10 10 11  0 28 30.0000000  0  8G 6G16G 3G31G19G13G21G23
 106694747.53947  20303331.219    83138766.84147  20303328.3084         42.8004
        42.9004
 110489956.27746  21025540.517    86096068.53646  21025536.5544         39.3004
        39.2004
 109296803.13046  20798487.227    85166345.99846  20798484.8404         40.2004
        40.4004
 113275494.71946  21555610.306    88266618.64046  21555606.0934         41.4004
        41.8004
 123345911.43844  23471942.848    96113696.04344  23471939.1614         27.3004
        27.4004
 125329440.25742  23849398.559    97659302.93942  23849396.9844         15.5004
        15.7004
 126561443.81243  24083838.864    98619309.49543  24083834.4524         23.4004
        23.6004
 115813098.18345  22038499.282    90243972.63745  22038494.5214         32.4004
        32.3004
 10 10 11  0 29  0.0000000  0  8G 6G16G 3G31G19G13G21G23
 106636239.74447  20292197.370    83093176.35347  20292194.6614         42.9004
        42.9004
 110474877.87446  21022670.920    86084319.11346  21022667.2634         39.0004
        38.9004
 109199412.87746  20779954.541    85090457.50346  20779951.9794         40.0004
        40.3004
 113291145.83446  21558588.693    88278814.30646  21558584.3774         41.7004
        41.8004
 123210817.94244  23446235.689    96008428.39944  23446231.1494         27.5004
        27.4004
 125221088.34642  23828780.563    97574872.90942  23828776.3234         15.5004
        15.7004
 126526166.27043  24077126.047    98591820.50443  24077122.2174         23.5004
        23.4004
 115750970.18545  22026676.314    90195561.18945  22026671.1344         32.3004
        32.1004
 10 10 11  0 29 30.0000000  0  8G 6G16G 3G31G19G13G21G23
 106578239.34747  20281160.236    83047981.24747  20281157.3794         42.9004
        42.8004
 110459946.99946  21019829.468    86072684.65446  21019826.0794         38.6004
        38.6004
 109102465.99946  20761505.967    85014914.48646  20761503.2044         40.6004
        40.9004
 113307152.92046  21561634.749    88291287.34346  21561630.9914         41.8004
        41.9004
 123075931.90044  23420567.807    95903322.40144  23420563.3294         27.8004
        27.9004
 125113142.98342  23808238.775    97490759.67042  23808236.3324         16.5004
        15.7004
 126491289.45743  24070489.069    98564643.77843  24070484.9434         23.3004
        23.4004
 115689419.58645  22014963.492    90147599.65745  22014958.8774         32.1004
        31.9004
 10 10 11  0 30  0.0000000  0  8G 6G16G 3G31G19G13G21G23
 106520746.17847  20270219.642    83003181.37647  20270216.8914         42.7004
        42.8004
 110445162.72246  21017016.133    86061164.43446  21017012.2144         38.2004
        37.9004
 109005962.97646  20743142.206    84939717.33446  20743139.4104         40.4004
        40.6004
 113323515.68846  21564748.681    88304037.53546  21564744.4474         41.7004
        41.7004
 122941255.18444  23394938.847    95798379.51444  23394935.0834         27.5004
        27.5004
 125005606.46342  23787774.156    97406965.01842  23787773.3694         16.5004
        17.2004
 126456814.02643  24063928.139    98537779.81343  24063924.1874         23.3004
        23.3004
 115628446.71345  22003361.369    90100088.30345  22003355.6574         31.9004
        31.9004
 10 10 11  0 30 30.0000000  0  8G 6G16G 3G31G19G13G21G23
 106463760.75547  20259375.640    82958777.15647  20259373.0544         43.0004
        42.9004
 110430524.32346  21014230.353    86049757.89146  21014226.8434         38.1004
        37.9004
 108909905.91146  20724862.935    84864867.67746  20724860.4584         40.6004
        40.8004
 113340234.92246  21567930.048    88317065.48746  21567925.7104         41.1004
        41.4004
 122806790.63744  23369351.309    95693601.96644  23369347.1264         27.7004
        27.9004
 124898481.60642  23767389.243    97323491.14142  23767387.3424         17.6004
        17.2004
 126422741.53843  24057444.821    98511229.82643  24057440.1754         23.0004
        23.1004
 115568053.25445  21991868.180    90053028.43245  21991864.0504         32.1004
        32.1004
 10 10 11  0 31  0.0000000  0  8G 6G16G 3G31G19G13G21G23
 106407282.55747  20248628.511    82914768.17947  20248625.3914         42.9004
        43.0004
 110416030.92246  21011472.237    86038464.32246  21011468.9494         37.7004
        37.5004
 108814295.58946  20706669.182    84790366.14046  20706666.5264         40.7004
        41.0004
 113357310.38146  21571179.740    88330371.02246  21571175.5024         41.4004
        41.4004
 122672540.03044  23343804.170    95588991.11844  23343799.6664         28.1004
        28.1004
 124791770.34842  23747081.618    97240339.54642  23747080.9104         17.6004
        16.9004
 126389072.15443  24051037.548    98484993.91843  24051033.6304         23.1004
        23.2004
 115508239.54645  21980485.969    90006420.33845  21980481.5114         32.1004
        32.1004
 10 10 11  0 31 30.0000000  0  8G 6G16G 3G31G19G13G21G23
 106351312.27447  20237977.795    82871154.97047  20237974.6694         42.7004
        42.8004
 110401681.87246  21008741.610    86027283.22846  21008738.8414         37.6004
        37.4004
 108719133.65546  20688560.321    84716213.98646  20688557.6784         41.3004
        41.5004
 113374742.40246  21574497.057    88343954.39646  21574492.7854         40.8004
        41.1004
 122538506.37144  23318298.756    95484549.30744  23318294.3294         28.2004
        27.8004
 124685475.82842  23726855.846    97157512.65642  23726853.1854         16.3004
        16.9004
 126355807.53343  24044707.513    98459073.44843  24044703.0114         23.2004
        23.2004
 115449006.86645  21969214.579    89960264.97145  21969209.8554         32.2004
        32.1004
 10 10 11  0 32  0.0000000  0  8G 6G16G 3G31G19G13G21G23
 106295850.81547  20227423.834    82827938.25747  20227420.6214         42.7004
        43.0004
 110387477.42746  21006039.082    86016214.81846  21006035.4584         37.7004
        37.4004
 108624422.74546  20670537.769    84642413.29146  20670534.9304         41.3004
        41.6004
 113392532.16146  21577881.956    88357816.52446  21577878.0564         41.0004
        41.0004
 122404692.64644  23292835.141    95380278.89144  23292830.8484         28.8004
        29.0004
 124579601.54342  23706707.211    97075013.22142  23706706.5024         15.2004
        15.6004
 126322949.58143  24038453.616    98433469.84843  24038450.8784         23.2004
        23.3004
 115390357.25345  21958054.481    89914563.95345  21958049.5114         32.4004
        32.4004
 10 10 11  0 32 30.0000000  0  8G 6G16G 3G31G19G13G21G23
 106240899.62847  20216966.922    82785119.15747  20216963.6764         42.8004
        42.9004
 110373418.41046  21003363.331    86005259.73146  21003360.2684         37.6004
        37.5004
 108530165.14646  20652601.389    84568965.82046  20652598.1724         41.6004
        41.6004
 113410681.21446  21581335.529    88371958.61846  21581331.5704         40.6004
        40.5004
 122271102.75544  23267413.604    95276182.90144  23267409.0284         28.8004
        29.1004
 124474151.07042  23686640.972    96992844.04042  23686639.8714         15.2004
        15.6004
 126290500.82143  24032279.517    98408185.11043  24032275.3134         22.9004
        22.5004
 115332292.64945  21947005.435    89869318.78545  21947000.0124         32.8004
        32.8004
 10 10 11  0 33  0.0000000  0  8G 6G16G 3G31G19G13G21G23
 106186459.11847  20206607.369    82742697.99047  20206604.2354         43.2004
        43.2004
 110359504.32346  21000716.190    85994417.57646  21000712.3794         37.9004
        37.7004
 108436362.96446  20634751.624    84495873.21546  20634748.3274         41.5004
        41.8004
 113429190.19646  21584857.392    88386381.17646  21584853.5634         40.3004
        40.2004
 122137739.37344  23242035.767    95172263.39144  23242031.0854         28.8004
        28.7004
 124369127.80142  23666656.978    96911007.73042  23666655.8104         16.0004
        15.5004
 126258462.69643  24026182.575    98383220.32143  24026179.0314         22.2004
        22.5004
 115274814.38345  21936068.368    89824530.51145  21936062.2614         33.2004
        33.1004
 10 10 11  0 33 30.0000000  0  8G 6G16G 3G31G19G13G21G23
 106132528.19147  20196344.814    82700673.89347  20196341.4064         43.0004
        43.1004
 110345733.20646  20998095.667    85983686.82546  20998091.9214         37.9004
        37.9004
 108343015.64446  20616988.022    84423135.05247  20616984.8084         41.7004
        42.1004
 113448057.81746  21588448.130    88401083.19646  21588443.9804         40.2004
        40.2004
 122004603.48644  23216700.581    95068521.16744  23216695.9434         29.8004
        29.7004
 124264532.83942  23646754.018    96829505.18742  23646751.2434         16.0004
        15.5004
 126226834.65043  24020163.437    98358575.08443  24020160.0374         22.2004
        21.8004
 115217921.88645  21925242.217    89780198.68945  21925236.1254         33.5004
        33.4004
 10 10 11  0 34  0.0000000  0  8G 6G16G 3G31G19G13G21G23
 106079106.40447  20186179.072    82659046.53347  20186175.4494         43.0004
        43.1004
 110332104.07646  20995502.888    85973066.71246  20995498.1214         38.2004
        38.2004
 108250124.22446  20599311.471    84350752.13047  20599308.4434         41.7004
        42.1004
 113467283.87746  21592106.791    88416064.52246  21592102.9174         39.6004
        39.7004
 121871697.01045  23191409.679    94964957.71045  23191404.6034         30.1004
        30.1004
 124160368.39943  23626931.911    96748338.10342  23626929.2264         18.1004
        17.9004
 126195617.70643  24014223.632    98334250.17443  24014220.6704         21.4004
        21.6004
 115161615.83345  21914527.375    89736323.82745  21914521.6544         33.5004
        33.7004
 10 10 11  0 34 30.0000000  0  8G 6G16G 3G31G19G13G21G23
 106026192.08447  20176109.535    82617814.59647  20176106.2904         43.0004
        43.2004
 110318614.55346  20992936.223    85962555.39146  20992931.1604         38.4004
        38.2004
 108157688.66547  20581721.462    84278724.42647  20581718.4854         42.0004
        42.6004
 113486867.16846  21595832.800    88431324.19946  21595829.4314         39.7004
        39.8004
 121739020.69444  23166162.429    94861573.57144  23166156.2374         29.5004
        29.6004
 124056635.06043  23607191.989    96667506.93943  23607190.4264         19.6004
        19.5004
 126164810.91143  24008360.525    98310244.88343  24008358.5394         21.8004
        21.6004
 115105895.73045  21903923.966    89692905.55345  21903917.8454         33.8004
        33.7004
 10 10 11  0 35  0.0000000  0  8G 6G16G 3G31G19G13G21G23
 105973788.57347  20166137.341    82576980.70047  20166134.3584         42.7004
        42.8004
 110305267.00546  20990396.310    85952154.69546  20990391.3704         38.6004
        38.7004
 108065713.12647  20564219.028    84207055.17647  20564216.2554         42.0004
        42.0004
 113506810.77246  21599627.846    88446864.63346  21599624.2134         39.5004
        39.4004
 121606580.21844  23140959.129    94758373.22944  23140954.2874         29.6004
        29.6004
 123953338.66343  23587535.506    96587016.24043  23587532.6614         19.6004
