     2.11           OBSERVATION DATA    G (GPS)             RINEX VERSION / TYPE
teqc  2012Jun6      GSI, JAPAN          20241208 15:04:27UTCPGM / RUN BY / DATE
Linux 2.4.21-27.ELsmp|Opteron|gcc -static|Linux x86_64|=+   COMMENT
BIT 2 OF LLI FLAGS DATA COLLECTED UNDER A/S CONDITION       COMMENT
0604                                                        MARKER NAME
GSI, JAPAN          GEOSPATIAL INFORMATION AUTHORITY OF JAPAOBSERVER / AGENCY
00000               TRIMBLE ALLOY       6.15,22/JUL/2022    REC # / TYPE / VERS
                    TRM59800.80     GSI                     ANT # / TYPE
 -4523679.1835  3620992.0292  2657057.6561                  APPROX POSITION XYZ
        0.0000        0.0000        0.0000                  ANTENNA: DELTA H/E/N
     1     1                                                WAVELENGTH FACT L1/2
     6    L1    C1    L2    P2    S1    S2                  # / TYPES OF OBSERV
    30.0000                                                 INTERVAL
Forced Modulo Decimation to 30 seconds                      COMMENT
 SNR is mapped to RINEX snr flag value [0-9]                COMMENT
  L1 & L2: min(max(int(snr_dBHz/6), 0), 9)                  COMMENT
teqc edited: all GLONASS satellites excluded                COMMENT
teqc edited: all SBAS satellites excluded                   COMMENT
teqc edited: all Galileo satellites excluded                COMMENT
teqc edited: all Compass satellites excluded                COMMENT
teqc edited: all QZSS satellites excluded                   COMMENT
  2024    12     8    10     0    0.0000000     GPS         TIME OF FIRST OBS
                                                            END OF HEADER
 24 12  8 10  0  0.0000000  0  9G10G26G02G07G21G30G08G16G27
 126671329.678 6  24104723.742    98705155.84045  24104739.4614         39.400
        34.4004
10 24 12  8  9 59 44.0-2.260277979076D-04-1.523403625470D-11 0.000000000000D+00
    1.000000000000D+01 5.906250000000D+00 4.121600252623D-09 2.978823608737D+00
    2.253800630569D-07 1.004461047705D-02 5.153939127922D-06 5.153684156418D+03
    3.598400000000D+04 4.656612873077D-08-4.336379371378D-01-1.508742570877D-07
    9.871389860039D-01 2.964062500000D+02-2.348541136245D+00-7.868184884340D-09
    2.607251459631D-10 1.000000000000D+00 2.344000000000D+03 0.000000000000D+00
    2.000000000000D+00 0.000000000000D+00 2.328306436539D-09 1.000000000000D+01
    3.469800000000D+04 4.000000000000D+00
26 24 12  8 10  0  0.0-1.169741153717D-06-1.386979420204D-11 0.000000000000D+00
    1.650000000000D+02 5.031250000000D+01 5.333436444750D-09 2.852847924956D+00
    2.510845661163D-06 9.680079179816D-03 7.100403308868D-06 5.153739147186D+03
    3.600000000000D+04-3.725290298462D-09 2.618303834247D+00-1.005828380585D-07
    9.301653502861D-01 2.273125000000D+02 5.914917337763D-01-8.396064015482D-09
    1.339341503235D-10 1.000000000000D+00 2.344000000000D+03 0.000000000000D+00
    2.000000000000D+00 0.000000000000D+00 6.519258022308D-09 1.650000000000D+02
    2.881800000000D+04 4.000000000000D+00
 2 24 12  8 10  0  0.0-2.968776971102D-04 8.753886504564D-12 0.000000000000D+00
    1.110000000000D+02 1.853125000000D+01 4.306965116671D-09 1.155116450780D+00
    7.003545761108D-07 1.648282748647D-02 9.639188647270D-06 5.153683776855D+03
    3.600000000000D+04 2.291053533554D-07-1.569672236635D+00-3.781169652939D-07
    9.664396036544D-01 1.956562500000D+02-1.083791593093D+00-8.071407635097D-09
    0.000000000000D+00 1.000000000000D+00 2.344000000000D+03 0.000000000000D+00
    2.000000000000D+00 0.000000000000D+00-1.769512891769D-08 1.110000000000D+02
    2.926800000000D+04 4.000000000000D+00
 7 24 12  8 10  0  0.0-1.638894900680D-05 1.477928890381D-12 0.000000000000D+00
    5.600000000000D+01-1.728125000000D+01 4.540546274835D-09-1.737345117478D+00
   -9.592622518539D-07 1.882279152051D-02 1.109577715397D-05 5.153772167206D+03
    3.600000000000D+04 4.135072231293D-07 1.656948053783D+00-6.519258022308D-08
    9.499806341865D-01 1.552500000000D+02-2.090395306864D+00-7.747465570181D-09
    8.286059433349D-11 1.000000000000D+00 2.344000000000D+03 0.000000000000D+00
    2.000000000000D+00 0.000000000000D+00-1.071020960808D-08 5.600000000000D+01
    2.913600000000D+04 4.000000000000D+00
21 24 12  8 10  0  0.0 9.549502283335D-05-1.023181539495D-12 0.000000000000D+00
    3.000000000000D+01 2.128125000000D+01 4.490901349782D-09 8.411836214400D-01
    9.611248970032D-07 2.570884069428D-02 8.763745427132D-06 5.153631149292D+03
    3.600000000000D+04 6.277114152908D-07-1.578027532324D+00-9.685754776001D-08
    9.606819969698D-01 2.079375000000D+02-4.820587115431D-01-8.211770624636D-09
   -4.321608583773D-11 1.000000000000D+00 2.344000000000D+03 0.000000000000D+00
    2.000000000000D+00 0.000000000000D+00-1.024454832077D-08 3.000000000000D+01
    2.881800000000D+04 4.000000000000D+00
30 24 12  8  9 59 28.0-2.657761797309D-04 8.071765478235D-12 0.000000000000D+00
    9.100000000000D+01-2.184375000000D+01 4.910204529728D-09-1.916995689834D+00
   -1.212581992149D-06 7.186942966655D-03 1.110881567001D-05 5.153771268845D+03
    3.596800000000D+04 5.587935447693D-08 1.654644640991D+00-8.940696716309D-08
    9.351469915744D-01 1.496875000000D+02-2.460195820482D+00-8.066407426819D-09
    9.607543049875D-11 1.000000000000D+00 2.344000000000D+03 0.000000000000D+00
    2.000000000000D+00 0.000000000000D+00 3.725290298462D-09 9.100000000000D+01
    3.463800000000D+04 4.000000000000D+00
 8 24 12  8 10  0  0.0 4.333839751780D-04 9.208633855451D-12 0.000000000000D+00
    6.600000000000D+01 8.593750000000D+00 4.829844039534D-09 1.025017580668D+00
    5.532056093216D-07 1.011138898320D-02 6.800517439842D-06 5.153718894958D+03
    3.600000000000D+04-5.029141902924D-08-2.569993652060D+00 1.601874828339D-07
    9.504026977558D-01 2.424687500000D+02 3.861003278399D-01-8.364991292607D-09
   -4.350181202508D-10 1.000000000000D+00 2.344000000000D+03 0.000000000000D+00
    2.000000000000D+00 0.000000000000D+00 4.656612873077D-09 6.600000000000D+01
    2.881800000000D+04 4.000000000000D+00
16 24 12  8  9 59 44.0-1.086019910872D-04 9.663381206337D-12 0.000000000000D+00
    5.200000000000D+01 4.312500000000D+01 4.728768400756D-09 2.017853683157D+00
    2.011656761169D-06 1.434606022667D-02 7.089227437973D-06 5.153656431198D+03
    3.598400000000D+04-1.844018697739D-07 2.790743828219D+00-2.309679985046D-07
    9.608052726876D-01 2.458750000000D+02 8.593221876355D-01-8.174983378014D-09
    3.964450849577D-11 1.000000000000D+00 2.344000000000D+03 0.000000000000D+00
    2.000000000000D+00 0.000000000000D+00-1.071020960808D-08 5.200000000000D+01
    2.881800000000D+04 4.000000000000D+00
27 24 12  8 10  0  0.0-3.434857353568D-05 2.273736754432D-13 0.000000000000D+00
    4.200000000000D+01 8.562500000000D+00 4.654479592043D-09 1.097491215257D+00
    4.451721906662D-07 1.296789047774D-02 7.344409823418D-06 5.153684415817D+03
    3.600000000000D+04-1.080334186554D-07-2.541848243439D+00 1.247972249985D-07
    9.594397630087D-01 2.389375000000D+02 8.015875887463D-01-8.362134030733D-09
   -4.450185368083D-10 1.000000000000D+00 2.344000000000D+03 0.000000000000D+00
    2.000000000000D+00 0.000000000000D+00 1.862645149231D-09 4.200000000000D+01
    2.881800000000D+04 4.000000000000D+00
 2 24 12  8 12  0  0.0-2.968148328364D-04 8.753886504564D-12 0.000000000000D+00
    1.120000000000D+02 3.384375000000D+01 4.107671100989D-09 2.205143068054D+00
    1.678243279457D-06 1.648271211889D-02 9.072944521904D-06 5.153688243866D+03
    4.320000000000D+04 2.309679985046D-07-1.569727739747D+00 4.097819328308D-08
    9.664402605046D-01 2.035937500000D+02-1.083648061811D+00-7.741393888700D-09
   -1.546492989069D-10 1.000000000000D+00 2.344000000000D+03 0.000000000000D+00
    2.000000000000D+00 0.000000000000D+00-1.769512891769D-08 1.120000000000D+02
    3.601800000000D+04 4.000000000000D+00
 8 24 12  8 12  0  0.0 4.334505647421D-04 9.208633855451D-12 0.000000000000D+00
    6.700000000000D+01 6.218750000000D+00 4.809843206419D-09 2.075111462916D+00
    3.222376108170D-07 1.011145208031D-02 7.120892405510D-06 5.153720069885D+03
    4.320000000000D+04-1.899898052216D-07-2.570054232960D+00 7.823109626770D-08
    9.503998845643D-01 2.387187500000D+02 3.861618289159D-01-8.289631010691D-09
   -3.610864692722D-10 1.000000000000D+00 2.344000000000D+03 0.000000000000D+00
    2.000000000000D+00 0.000000000000D+00 4.656612873077D-09 6.700000000000D+01
    3.601800000000D+04 4.000000000000D+00
 7 24 12  8 12  0  0.0-1.637823879719D-05 1.477928890381D-12 0.000000000000D+00
    1.000000000000D+02-8.937500000000D+00 4.863059708814D-09-6.872384829728D-01
   -4.209578037262D-07 1.882326824125D-02 1.125223934650D-05 5.153771923065D+03
    4.320000000000D+04-1.136213541031D-07 1.656890713246D+00 3.334134817123D-07
    9.499777814963D-01 1.578437500000D+02-2.090379677047D+00-8.431422631167D-09
   -2.785830326729D-11 1.000000000000D+00 2.344000000000D+03 0.000000000000D+00
    2.000000000000D+00 0.000000000000D+00-1.071020960808D-08 1.000000000000D+02
    3.601800000000D+04 4.000000000000D+00
10 24 12  8 11 59 44.0-2.261372283101D-04-1.523403625470D-11 0.000000000000D+00
    1.100000000000D+01 5.968750000000D+00 4.074455431709D-09-2.254143291145D+00
    1.378357410431D-07 1.004419429228D-02 5.250796675682D-06 5.153685190201D+03
    4.318400000000D+04 1.545995473862D-07-4.336953361916D-01-2.793967723846D-08
    9.871410501813D-01 2.904375000000D+02-2.348587583894D+00-7.906043604165D-09
    3.818016178556D-10 1.000000000000D+00 2.344000000000D+03 0.000000000000D+00
    2.000000000000D+00 0.000000000000D+00 2.328306436539D-09 1.100000000000D+01
    3.601800000000D+04 4.000000000000D+00
26 24 12  8 12  0  0.0-1.269392669201D-06-1.386979420204D-11 0.000000000000D+00
    1.660000000000D+02 4.975000000000D+01 5.349151385055D-09-2.380202027711D+00
    2.522021532059D-06 9.680136339739D-03 7.020309567451D-06 5.153739002228D+03
    4.320000000000D+04 5.029141902924D-08 2.618243297234D+00-8.009374141693D-08
    9.301663392188D-01 2.287812500000D+02 5.915031650182D-01-8.403207170165D-09
    1.571494030463D-10 1.000000000000D+00 2.344000000000D+03 0.000000000000D+00
    2.000000000000D+00 0.000000000000D+00 6.519258022308D-09 1.660000000000D+02
    3.601800000000D+04 4.000000000000D+00
16 24 12  8 12  0  0.0-1.085326075554D-04 9.663381206337D-12 0.000000000000D+00
    5.800000000000D+01 4.650000000000D+01 4.646622121891D-09 3.070343861792D+00
    2.289190888405D-06 1.434530876577D-02 6.584450602531D-06 5.153658113480D+03
    4.320000000000D+04 4.656612873077D-08 2.790685930311D+00-1.620501279831D-07
    9.608063801166D-01 2.515625000000D+02 8.593577146011D-01-7.978546624206D-09
    2.464388365953D-11 1.000000000000D+00 2.344000000000D+03 0.000000000000D+00
    2.000000000000D+00 0.000000000000D+00-1.071020960808D-08 5.800000000000D+01
    3.601800000000D+04 4.000000000000D+00
21 24 12  8 12  0  0.0 9.548757225275D-05-1.023181539495D-12 0.000000000000D+00
    3.600000000000D+01 3.662500000000D+01 4.266606292706D-09 1.891305901854D+00
    1.937150955200D-06 2.570940938313D-02 8.812174201012D-06 5.153635316849D+03
    4.320000000000D+04 2.142041921616D-07-1.578083115896D+00 2.868473529816D-07
    9.606815302990D-01 2.060937500000D+02-4.819778414317D-01-7.857827310048D-09
   -3.339424814733D-10 1.000000000000D+00 2.344000000000D+03 0.000000000000D+00
    2.000000000000D+00 0.000000000000D+00-1.024454832077D-08 3.600000000000D+01
    3.601800000000D+04 4.000000000000D+00
27 24 12  8 12  0  0.0-3.434671089053D-05 2.273736754432D-13 0.000000000000D+00
    4.300000000000D+01 3.281250000000D+00 4.520188283986D-09 2.147605565192D+00
    2.980232238770D-08 1.296779687982D-02 7.202848792076D-06 5.153685901642D+03
    4.320000000000D+04-1.844018697739D-07-2.541908768749D+00-2.048909664154D-07
    9.594380265249D-01 2.406562500000D+02 8.016483729925D-01-8.103908988909D-09
   -2.942979729776D-10 1.000000000000D+00 2.344000000000D+03 0.000000000000D+00
    2.000000000000D+00 0.000000000000D+00 1.862645149231D-09 4.300000000000D+01
    3.601800000000D+04 4.000000000000D+00
30 24 12  8 12  0  0.0-2.657179720700D-04 8.071765478235D-12 0.000000000000D+00
    1.450000000000D+02-1.534375000000D+01 5.056282043014D-09-8.623328759685D-01
   -8.847564458847D-07 7.186400704086D-03 1.142174005508D-05 5.153769367218D+03
    4.320000000000D+04 1.415610313416D-07 1.654586576309D+00 1.434236764908D-07
    9.351465804944D-01 1.432812500000D+02-2.460067304592D+00-8.262129865158D-09
   -2.285809498855D-11 1.000000000000D+00 2.344000000000D+03 0.000000000000D+00
    2.000000000000D+00 0.000000000000D+00 3.725290298462D-09 1.450000000000D+02
    3.604200000000D+04 4.000000000000D+00
 3 24 12  8 12  0  0.0 6.196061149240D-04 9.208633855451D-12 0.000000000000D+00
    4.000000000000D+00 9.937500000000D+00 4.235890727566D-09-1.265852959354D+00
    6.929039955139D-07 5.655120243318D-03 5.222856998444D-06 5.153613748550D+03
    4.320000000000D+04 7.264316082001D-08-4.311663706900D-01 9.499490261078D-08
    9.875136539532D-01 2.950000000000D+02 1.153314548249D+00-8.117123825074D-09
    3.246563803842D-10 1.000000000000D+00 2.344000000000D+03 0.000000000000D+00
    2.000000000000D+00 0.000000000000D+00 1.396983861923D-09 4.000000000000D+00
    3.703800000000D+04 4.000000000000D+00
14 24 12  8 12  0  0.0 5.559572018683D-04 7.730704965070D-12 0.000000000000D+00
    1.000000000000D+01 4.943750000000D+01 5.013065957176D-09-1.569516159368D+00
    2.557411789894D-06 5.071413819678D-03 7.120892405510D-06 5.153694774628D+03
    4.320000000000D+04-2.980232238770D-08 2.725580503528D+00-1.583248376846D-07
    9.447201065845D-01 2.358125000000D+02-2.863262005738D+00-8.253915237272D-09
    1.239337337660D-10 1.000000000000D+00 2.344000000000D+03 0.000000000000D+00
    2.000000000000D+00 0.000000000000D+00-7.916241884232D-09 1.000000000000D+01
    3.910800000000D+04 4.000000000000D+00
14 24 12  8 12  0  0.0 5.559572018683D-04 7.730704965070D-12 0.000000000000D+00
    1.000000000000D+01 4.943750000000D+01 5.013065957176D-09-1.569516159368D+00
    2.557411789894D-06 5.071413819678D-03 7.120892405510D-06 5.153694774628D+03
    4.320000000000D+04-2.980232238770D-08 2.725580503528D+00-1.583248376846D-07
    9.447201065845D-01 2.358125000000D+02-2.863262005738D+00-8.253915237272D-09
    1.239337337660D-10 1.000000000000D+00 2.344000000000D+03 0.000000000000D+00
    2.000000000000D+00 0.000000000000D+00-7.916241884232D-09 1.000000000000D+01
    3.910800000000D+04 4.000000000000D+00
10 24 12  8 11 59 44.0-2.261372283101D-04-1.523403625470D-11 0.000000000000D+00
    1.100000000000D+01 5.968750000000D+00 4.074455431709D-09-2.254143291145D+00
    1.378357410431D-07 1.004419429228D-02 5.250796675682D-06 5.153685190201D+03
    4.318400000000D+04 1.545995473862D-07-4.336953361916D-01-2.793967723846D-08
    9.871410501813D-01 2.904375000000D+02-2.348587583894D+00-7.906043604165D-09
    3.818016178556D-10 1.000000000000D+00 2.344000000000D+03 0.000000000000D+00
    2.000000000000D+00 0.000000000000D+00 2.328306436539D-09 1.100000000000D+01
    3.601800000000D+04 4.000000000000D+00
 3 24 12  8 12  0  0.0 6.196061149240D-04 9.208633855451D-12 0.000000000000D+00
    4.000000000000D+00 9.937500000000D+00 4.235890727566D-09-1.265852959354D+00
    6.929039955139D-07 5.655120243318D-03 5.222856998444D-06 5.153613748550D+03
    4.320000000000D+04 7.264316082001D-08-4.311663706900D-01 9.499490261078D-08
    9.875136539532D-01 2.950000000000D+02 1.153314548249D+00-8.117123825074D-09
    3.246563803842D-10 1.000000000000D+00 2.344000000000D+03 0.000000000000D+00
    2.000000000000D+00 0.000000000000D+00 1.396983861923D-09 4.000000000000D+00
    3.703800000000D+04 4.000000000000D+00
 2 24 12  8 12  0  0.0-2.968148328364D-04 8.753886504564D-12 0.000000000000D+00
    1.120000000000D+02 3.384375000000D+01 4.107671100989D-09 2.205143068054D+00
    1.678243279457D-06 1.648271211889D-02 9.072944521904D-06 5.153688243866D+03
    4.320000000000D+04 2.309679985046D-07-1.569727739747D+00 4.097819328308D-08
    9.664402605046D-01 2.035937500000D+02-1.083648061811D+00-7.741393888700D-09
   -1.546492989069D-10 1.000000000000D+00 2.344000000000D+03 0.000000000000D+00
    2.000000000000D+00 0.000000000000D+00-1.769512891769D-08 1.120000000000D+02
    3.601800000000D+04 4.000000000000D+00
 7 24 12  8 12  0  0.0-1.637823879719D-05 1.477928890381D-12 0.000000000000D+00
    1.000000000000D+02-8.937500000000D+00 4.863059708814D-09-6.872384829728D-01
   -4.209578037262D-07 1.882326824125D-02 1.125223934650D-05 5.153771923065D+03
    4.320000000000D+04-1.136213541031D-07 1.656890713246D+00 3.334134817123D-07
    9.499777814963D-01 1.578437500000D+02-2.090379677047D+00-8.431422631167D-09
   -2.785830326729D-11 1.000000000000D+00 2.344000000000D+03 0.000000000000D+00
    2.000000000000D+00 0.000000000000D+00-1.071020960808D-08 1.000000000000D+02
    3.601800000000D+04 4.000000000000D+00
21 24 12  8 12  0  0.0 9.548757225275D-05-1.023181539495D-12 0.000000000000D+00
    3.600000000000D+01 3.662500000000D+01 4.266606292706D-09 1.891305901854D+00
    1.937150955200D-06 2.570940938313D-02 8.812174201012D-06 5.153635316849D+03
    4.320000000000D+04 2.142041921616D-07-1.578083115896D+00 2.868473529816D-07
    9.606815302990D-01 2.060937500000D+02-4.819778414317D-01-7.857827310048D-09
   -3.339424814733D-10 1.000000000000D+00 2.344000000000D+03 0.000000000000D+00
    2.000000000000D+00 0.000000000000D+00-1.024454832077D-08 3.600000000000D+01
    3.601800000000D+04 4.000000000000D+00
30 24 12  8 12  0  0.0-2.657179720700D-04 8.071765478235D-12 0.000000000000D+00
    1.450000000000D+02-1.534375000000D+01 5.056282043014D-09-8.623328759685D-01
   -8.847564458847D-07 7.186400704086D-03 1.142174005508D-05 5.153769367218D+03
    4.320000000000D+04 1.415610313416D-07 1.654586576309D+00 1.434236764908D-07
    9.351465804944D-01 1.432812500000D+02-2.460067304592D+00-8.262129865158D-09
   -2.285809498855D-11 1.000000000000D+00 2.344000000000D+03 0.000000000000D+00
    2.000000000000D+00 0.000000000000D+00 3.725290298462D-09 1.450000000000D+02
    3.604200000000D+04 4.000000000000D+00
 8 24 12  8 12  0  0.0 4.334505647421D-04 9.208633855451D-12 0.000000000000D+00
    6.700000000000D+01 6.218750000000D+00 4.809843206419D-09 2.075111462916D+00
    3.222376108170D-07 1.011145208031D-02 7.120892405510D-06 5.153720069885D+03
    4.320000000000D+04-1.899898052216D-07-2.570054232960D+00 7.823109626770D-08
    9.503998845643D-01 2.387187500000D+02 3.861618289159D-01-8.289631010691D-09
   -3.610864692722D-10 1.000000000000D+00 2.344000000000D+03 0.000000000000D+00
    2.000000000000D+00 0.000000000000D+00 4.656612873077D-09 6.700000000000D+01
    3.601800000000D+04 4.000000000000D+00
16 24 12  8 12  0  0.0-1.085326075554D-04 9.663381206337D-12 0.000000000000D+00
    5.800000000000D+01 4.650000000000D+01 4.646622121891D-09 3.070343861792D+00
    2.289190888405D-06 1.434530876577D-02 6.584450602531D-06 5.153658113480D+03
    4.320000000000D+04 4.656612873077D-08 2.790685930311D+00-1.620501279831D-07
    9.608063801166D-01 2.515625000000D+02 8.593577146011D-01-7.978546624206D-09
    2.464388365953D-11 1.000000000000D+00 2.344000000000D+03 0.000000000000D+00
    2.000000000000D+00 0.000000000000D+00-1.071020960808D-08 5.800000000000D+01
    3.601800000000D+04 4.000000000000D+00
27 24 12  8 12  0  0.0-3.434671089053D-05 2.273736754432D-13 0.000000000000D+00
    4.300000000000D+01 3.281250000000D+00 4.520188283986D-09 2.147605565192D+00
    2.980232238770D-08 1.296779687982D-02 7.202848792076D-06 5.153685901642D+03
    4.320000000000D+04-1.844018697739D-07-2.541908768749D+00-2.048909664154D-07
    9.594380265249D-01 2.406562500000D+02 8.016483729925D-01-8.103908988909D-09
   -2.942979729776D-10 1.000000000000D+00 2.344000000000D+03 0.000000000000D+00
    2.000000000000D+00 0.000000000000D+00 1.862645149231D-09 4.300000000000D+01
    3.601800000000D+04 4.000000000000D+00
17 24 12  8 11 59 44.0 5.277269519866D-04-1.568878360558D-11 0.000000000000D+00
    1.200000000000D+01-2.750000000000D+00 4.315536902291D-09 2.025439002636D+00
   -1.154839992523D-07 1.347283914220D-02 6.765127182007D-06 5.153586174011D+03
    4.318400000000D+04 2.589076757431D-07-2.472303928216D+00 3.166496753693D-08
    9.661448095693D-01 2.461562500000D+02-1.259068962030D+00-7.877828143163D-09
   -3.953736117551D-10 1.000000000000D+00 2.344000000000D+03 0.000000000000D+00
    2.000000000000D+00 0.000000000000D+00-1.071020960808D-08 1.200000000000D+01
    4.108200000000D+04 4.000000000000D+00
22 24 12  8 12  0  0.0-8.497294038534D-05-2.501110429876D-12 0.000000000000D+00
    7.000000000000D+00 5.368750000000D+01 4.617335187687D-09 2.549392359831D+00
    2.870336174965D-06 1.364153577015D-02 6.964430212975D-06 5.153675994873D+03
    4.320000000000D+04 1.266598701477D-07 2.793984024992D+00 5.401670932770D-08
    9.601650602373D-01 2.420625000000D+02-1.081856036904D+00-7.919615598064D-09
   -3.071556514086D-11 1.000000000000D+00 2.344000000000D+03 0.000000000000D+00
    2.000000000000D+00 0.000000000000D+00-1.117587089539D-08 7.000000000000D+00
    4.228800000000D+04 4.000000000000D+00
14 24 12  8 12  0  0.0 5.559572018683D-04 7.730704965070D-12 0.000000000000D+00
    1.000000000000D+01 4.943750000000D+01 5.013065957176D-09-1.569516159368D+00
    2.557411789894D-06 5.071413819678D-03 7.120892405510D-06 5.153694774628D+03
    4.320000000000D+04-2.980232238770D-08 2.725580503528D+00-1.583248376846D-07
    9.447201065845D-01 2.358125000000D+02-2.863262005738D+00-8.253915237272D-09
    1.239337337660D-10 1.000000000000D+00 2.344000000000D+03 0.000000000000D+00
    2.000000000000D+00 0.000000000000D+00-7.916241884232D-09 1.000000000000D+01
    3.910800000000D+04 4.000000000000D+00
22 24 12  8 12  0  0.0-8.497294038534D-05-2.501110429876D-12 0.000000000000D+00
    7.000000000000D+00 5.368750000000D+01 4.617335187687D-09 2.549392359831D+00
    2.870336174965D-06 1.364153577015D-02 6.964430212975D-06 5.153675994873D+03
    4.320000000000D+04 1.266598701477D-07 2.793984024992D+00 5.401670932770D-08
    9.601650602373D-01 2.420625000000D+02-1.081856036904D+00-7.919615598064D-09
   -3.071556514086D-11 1.000000000000D+00 2.344000000000D+03 0.000000000000D+00
    2.000000000000D+00 0.000000000000D+00-1.117587089539D-08 7.000000000000D+00
    4.228800000000D+04 4.000000000000D+00
 3 24 12  8 12  0  0.0 6.196061149240D-04 9.208633855451D-12 0.000000000000D+00
    4.000000000000D+00 9.937500000000D+00 4.235890727566D-09-1.265852959354D+00
    6.929039955139D-07 5.655120243318D-03 5.222856998444D-06 5.153613748550D+03
    4.320000000000D+04 7.264316082001D-08-4.311663706900D-01 9.499490261078D-08
    9.875136539532D-01 2.950000000000D+02 1.153314548249D+00-8.117123825074D-09
    3.246563803842D-10 1.000000000000D+00 2.344000000000D+03 0.000000000000D+00
    2.000000000000D+00 0.000000000000D+00 1.396983861923D-09 4.000000000000D+00
    3.703800000000D+04 4.000000000000D+00
17 24 12  8 11 59 44.0 5.277269519866D-04-1.568878360558D-11 0.000000000000D+00
    1.200000000000D+01-2.750000000000D+00 4.315536902291D-09 2.025439002636D+00
   -1.154839992523D-07 1.347283914220D-02 6.765127182007D-06 5.153586174011D+03
    4.318400000000D+04 2.589076757431D-07-2.472303928216D+00 3.166496753693D-08
    9.661448095693D-01 2.461562500000D+02-1.259068962030D+00-7.877828143163D-09
   -3.953736117551D-10 1.000000000000D+00 2.344000000000D+03 0.000000000000D+00
    2.000000000000D+00 0.000000000000D+00-1.071020960808D-08 1.200000000000D+01
    4.108200000000D+04 4.000000000000D+00
 2 24 12  8 12  0  0.0-2.968148328364D-04 8.753886504564D-12 0.000000000000D+00
    1.120000000000D+02 3.384375000000D+01 4.107671100989D-09 2.205143068054D+00
    1.678243279457D-06 1.648271211889D-02 9.072944521904D-06 5.153688243866D+03
    4.320000000000D+04 2.309679985046D-07-1.569727739747D+00 4.097819328308D-08
    9.664402605046D-01 2.035937500000D+02-1.083648061811D+00-7.741393888700D-09
   -1.546492989069D-10 1.000000000000D+00 2.344000000000D+03 0.000000000000D+00
    2.000000000000D+00 0.000000000000D+00-1.769512891769D-08 1.120000000000D+02
    3.601800000000D+04 4.000000000000D+00
 7 24 12  8 12  0  0.0-1.637823879719D-05 1.477928890381D-12 0.000000000000D+00
    1.000000000000D+02-8.937500000000D+00 4.863059708814D-09-6.872384829728D-01
   -4.209578037262D-07 1.882326824125D-02 1.125223934650D-05 5.153771923065D+03
    4.320000000000D+04-1.136213541031D-07 1.656890713246D+00 3.334134817123D-07
    9.499777814963D-01 1.578437500000D+02-2.090379677047D+00-8.431422631167D-09
   -2.785830326729D-11 1.000000000000D+00 2.344000000000D+03 0.000000000000D+00
    2.000000000000D+00 0.000000000000D+00-1.071020960808D-08 1.000000000000D+02
    3.601800000000D+04 4.000000000000D+00
21 24 12  8 12  0  0.0 9.548757225275D-05-1.023181539495D-12 0.000000000000D+00
    3.600000000000D+01 3.662500000000D+01 4.266606292706D-09 1.891305901854D+00
    1.937150955200D-06 2.570940938313D-02 8.812174201012D-06 5.153635316849D+03
    4.320000000000D+04 2.142041921616D-07-1.578083115896D+00 2.868473529816D-07
    9.606815302990D-01 2.060937500000D+02-4.819778414317D-01-7.857827310048D-09
   -3.339424814733D-10 1.000000000000D+00 2.344000000000D+03 0.000000000000D+00
    2.000000000000D+00 0.000000000000D+00-1.024454832077D-08 3.600000000000D+01
    3.601800000000D+04 4.000000000000D+00
30 24 12  8 12  0  0.0-2.657179720700D-04 8.071765478235D-12 0.000000000000D+00
    1.450000000000D+02-1.534375000000D+01 5.056282043014D-09-8.623328759685D-01
   -8.847564458847D-07 7.186400704086D-03 1.142174005508D-05 5.153769367218D+03
    4.320000000000D+04 1.415610313416D-07 1.654586576309D+00 1.434236764908D-07
    9.351465804944D-01 1.432812500000D+02-2.460067304592D+00-8.262129865158D-09
   -2.285809498855D-11 1.000000000000D+00 2.344000000000D+03 0.000000000000D+00
    2.000000000000D+00 0.000000000000D+00 3.725290298462D-09 1.450000000000D+02
    3.604200000000D+04 4.000000000000D+00
 8 24 12  8 12  0  0.0 4.334505647421D-04 9.208633855451D-12 0.000000000000D+00
    6.700000000000D+01 6.218750000000D+00 4.809843206419D-09 2.075111462916D+00
    3.222376108170D-07 1.011145208031D-02 7.120892405510D-06 5.153720069885D+03
    4.320000000000D+04-1.899898052216D-07-2.570054232960D+00 7.823109626770D-08
    9.503998845643D-01 2.387187500000D+02 3.861618289159D-01-8.289631010691D-09
   -3.610864692722D-10 1.000000000000D+00 2.344000000000D+03 0.000000000000D+00
    2.000000000000D+00 0.000000000000D+00 4.656612873077D-09 6.700000000000D+01
    3.601800000000D+04 4.000000000000D+00
27 24 12  8 12  0  0.0-3.434671089053D-05 2.273736754432D-13 0.000000000000D+00
    4.300000000000D+01 3.281250000000D+00 4.520188283986D-09 2.147605565192D+00
    2.980232238770D-08 1.296779687982D-02 7.202848792076D-06 5.153685901642D+03
    4.320000000000D+04-1.844018697739D-07-2.541908768749D+00-2.048909664154D-07
    9.594380265249D-01 2.406562500000D+02 8.016483729925D-01-8.103908988909D-09
   -2.942979729776D-10 1.000000000000D+00 2.344000000000D+03 0.000000000000D+00
    2.000000000000D+00 0.000000000000D+00 1.862645149231D-09 4.300000000000D+01
    3.601800000000D+04 4.000000000000D+00
 2 24 12  8 14  0  0.0-2.967515029013D-04 8.753886504564D-12 0.000000000000D+00
    1.130000000000D+02 3.400000000000D+01 4.109099731926D-09-3.027836048656D+00
    1.717358827591D-06 1.648386125453D-02 8.521601557732D-06 5.153685865402D+03
    5.040000000000D+04 1.192092895508D-07-1.569784171812D+00 2.160668373108D-07
    9.664396577824D-01 2.132187500000D+02-1.083683868194D+00-7.709249692622D-09
   -7.500312418118D-12 1.000000000000D+00 2.344000000000D+03 0.000000000000D+00
    2.000000000000D+00 0.000000000000D+00-1.769512891769D-08 1.130000000000D+02
    4.321800000000D+04 4.000000000000D+00
 8 24 12  8 14  0  0.0 4.335171543062D-04 9.208633855451D-12 0.000000000000D+00
    8.500000000000D+01 5.281250000000D+00 4.722339561541D-09 3.125222373530D+00
    2.123415470123D-07 1.011057232972D-02 6.711110472679D-06 5.153721891403D+03
    5.040000000000D+04-1.247972249985D-07-2.570113592324D+00-5.960464477539D-08
    9.503980164179D-01 2.458125000000D+02 3.862049045387D-01-8.163554330520D-09
   -3.235849071817D-10 1.000000000000D+00 2.344000000000D+03 0.000000000000D+00
    2.000000000000D+00 0.000000000000D+00 4.656612873077D-09 8.500000000000D+01
    4.321800000000D+04 4.000000000000D+00
14 24 12  8 14  0  0.0 5.560126155615D-04 7.730704965070D-12 0.000000000000D+00
    1.100000000000D+01 4.618750000000D+01 5.155929050855D-09-5.192849208156D-01
    2.235174179077D-06 5.071819759905D-03 6.951391696930D-06 5.153695650101D+03
    5.040000000000D+04 1.545995473862D-07 2.725521455766D+00 4.097819328308D-08
    9.447197072078D-01 2.390000000000D+02-2.863321815681D+00-8.456066514827D-09
   -3.428714248282D-11 1.000000000000D+00 2.344000000000D+03 0.000000000000D+00
    2.000000000000D+00 0.000000000000D+00-7.916241884232D-09 1.100000000000D+01
    4.321800000000D+04 4.000000000000D+00
 7 24 12  8 14  0  0.0-1.636752858758D-05 1.477928890381D-12 0.000000000000D+00
    1.010000000000D+02-6.343750000000D+00 4.921990734956D-09 3.629135590464D-01
   -1.322478055954D-07 1.882332423702D-02 1.100450754166D-05 5.153772197723D+03
    5.040000000000D+04-2.291053533554D-07 1.656829771005D+00 1.676380634308D-07
    9.499774903756D-01 1.653125000000D+02-2.090408955889D+00-8.464995458181D-09
   -6.964575816824D-11 1.000000000000D+00 2.344000000000D+03 0.000000000000D+00
    2.000000000000D+00 0.000000000000D+00-1.071020960808D-08 1.010000000000D+02
    4.321800000000D+04 4.000000000000D+00
22 24 12  8 14  0  0.0-8.499156683683D-05-2.501110429876D-12 0.000000000000D+00
    8.000000000000D+00 5.365625000000D+01 4.669123059145D-09-2.683607163124D+00
    2.773478627205D-06 1.364162063692D-02 7.055699825287D-06 5.153675846100D+03
    5.040000000000D+04 1.229345798492D-07 2.793926966798D+00 1.210719347000D-07
    9.601649461297D-01 2.433750000000D+02-1.081861253669D+00-7.930330330090D-09
   -1.428630936784D-11 1.000000000000D+00 2.344000000000D+03 0.000000000000D+00
    2.000000000000D+00 0.000000000000D+00-1.117587089539D-08 8.000000000000D+00
    4.321800000000D+04 4.000000000000D+00
21 24 12  8 14  0  0.0 9.548058733344D-05-1.023181539495D-12 0.000000000000D+00
    4.000000000000D+01 3.078125000000D+01 4.131600669180D-09 2.941491427142D+00
    1.685693860054D-06 2.570870774798D-02 8.920207619667D-06 5.153636777878D+03
    5.040000000000D+04-2.048909664154D-07-1.578140909938D+00 3.594905138016D-07
    9.606805428293D-01 2.034375000000D+02-4.819605307221D-01-7.691034648178D-09
   -4.714482091388D-11 1.000000000000D+00 2.344000000000D+03 0.000000000000D+00
    2.000000000000D+00 0.000000000000D+00-1.024454832077D-08 4.000000000000D+01
    4.321800000000D+04 4.000000000000D+00
 3 24 12  8 14  0  0.0 6.196717731655D-04 9.208633855451D-12 0.000000000000D+00
    5.000000000000D+00 7.437500000000D+00 4.165530653929D-09-2.156681611360D-01
    3.334134817123D-07 5.654829670675D-03 5.494803190231D-06 5.153613130569D+03
    5.040000000000D+04 4.842877388000D-08-4.312248230448D-01 9.313225746155D-08
    9.875159843817D-01 2.940625000000D+02 1.153345111533D+00-8.118195298277D-09
    3.207276453081D-10 1.000000000000D+00 2.344000000000D+03 0.000000000000D+00
    2.000000000000D+00 0.000000000000D+00 1.396983861923D-09 5.000000000000D+00
    4.321800000000D+04 4.000000000000D+00
17 24 12  8 14  0  0.0 5.276137962937D-04-1.568878360558D-11 0.000000000000D+00
    3.800000000000D+01 4.312500000000D+00 4.343752363293D-09 3.077949081345D+00
    3.874301910400D-07 1.347218651790D-02 7.234513759613D-06 5.153587963104D+03
    5.040000000000D+04 1.657754182816D-07-2.472360529980D+00 1.117587089539D-07
    9.661418632523D-01 2.423125000000D+02-1.259013112207D+00-7.842469527478D-09
   -3.960879272235D-10 1.000000000000D+00 2.344000000000D+03 0.000000000000D+00
    2.000000000000D+00 0.000000000000D+00-1.071020960808D-08 3.800000000000D+01
    4.321800000000D+04 4.000000000000D+00
27 24 12  8 14  0  0.0-3.434438258410D-05 2.273736754432D-13 0.000000000000D+00
    5.100000000000D+01 1.218750000000D+00 4.485186826034D-09-3.085437099217D+00
    9.313225746155D-09 1.296767382883D-02 6.878748536110D-06 5.153686422348D+03
    5.040000000000D+04-2.048909664154D-08-2.541966499885D+00-1.750886440277D-07
    9.594363383174D-01 2.451562500000D+02 8.016783730535D-01-8.001761876929D-09
   -2.932264997750D-10 1.000000000000D+00 2.344000000000D+03 0.000000000000D+00
    2.000000000000D+00 0.000000000000D+00 1.862645149231D-09 5.100000000000D+01
    4.321800000000D+04 4.000000000000D+00
30 24 12  8 14  0  0.0-2.656602300704D-04 8.071765478235D-12 0.000000000000D+00
    1.460000000000D+02-4.812500000000D+00 5.126642116651D-09 1.878335889601D-01
   -2.458691596985D-07 7.188030867837D-03 1.102685928345D-05 5.153772466660D+03
    5.040000000000D+04-2.048909664154D-08 1.654526168033D+00 7.264316082001D-08
    9.351458329432D-01 1.498750000000D+02-2.460107644558D+00-8.418207795002D-09
   -3.571577341961D-12 1.000000000000D+00 2.344000000000D+03 0.000000000000D+00
    2.000000000000D+00 0.000000000000D+00 3.725290298462D-09 1.460000000000D+02
    4.321800000000D+04 4.000000000000D+00
 4 24 12  8 14  0  0.0 4.925127141178D-04 6.252776074689D-12 0.000000000000D+00
    1.870000000000D+02-7.187500000000D+01 4.632692970257D-09 2.809521670598D+00
   -3.639608621597D-06 3.203425672837D-03 7.400289177895D-06 5.153684600830D+03
    5.040000000000D+04-1.005828380585D-07 6.449727564470D-01-2.235174179077D-08
    9.663982542749D-01 2.417812500000D+02-2.988846993840D+00-8.091051310478D-09
   -2.535819912792D-11 1.000000000000D+00 2.344000000000D+03 0.000000000000D+00
    2.000000000000D+00 0.000000000000D+00-4.656612873077D-09 4.430000000000D+02
    4.578600000000D+04 4.000000000000D+00
 6 24 12  8 14  0  0.0-2.859206870198D-05-2.910383045673D-11 0.000000000000D+00
    9.800000000000D+01 3.071875000000D+01 3.572648815163D-09 1.206515910722D+00
    1.624226570129D-06 3.358138375916D-03 9.668990969658D-06 5.153750909805D+03
    5.040000000000D+04 9.872019290924D-08-1.467064708859D+00-2.421438694000D-08
    9.891783186760D-01 2.051250000000D+02-7.559207371443D-01-7.717821478243D-09
    5.107355599004D-11 1.000000000000D+00 2.344000000000D+03 0.000000000000D+00
    2.800000000000D+00 0.000000000000D+00 3.725290298462D-09 9.800000000000D+01
    4.603800000000D+04 4.000000000000D+00
 6 24 12  8 13 59 44.0-2.859160304070D-05-2.910383045673D-11 0.000000000000D+00
    1.000000000000D+00 3.071875000000D+01 3.573005972898D-09 1.204180610704D+00
    1.624226570129D-06 3.358133719303D-03 9.668990969658D-06 5.153750907898D+03
    5.038400000000D+04 9.872019290924D-08-1.467064590363D+00-2.421438694000D-08
    9.891783142873D-01 2.051250000000D+02-7.559190372335D-01-7.717821478243D-09
    5.071639825584D-11 1.000000000000D+00 2.344000000000D+03 0.000000000000D+00
    2.000000000000D+00 0.000000000000D+00 3.725290298462D-09 1.000000000000D+00
    4.669800000000D+04 4.000000000000D+00
 4 24 12  8 14  0  0.0 4.925127141178D-04 6.252776074689D-12 0.000000000000D+00
    1.870000000000D+02-7.187500000000D+01 4.632692970257D-09 2.809521670598D+00
   -3.639608621597D-06 3.203425672837D-03 7.400289177895D-06 5.153684600830D+03
    5.040000000000D+04-1.005828380585D-07 6.449727564470D-01-2.235174179077D-08
    9.663982542749D-01 2.417812500000D+02-2.988846993840D+00-8.091051310478D-09
   -2.535819912792D-11 1.000000000000D+00 2.344000000000D+03 0.000000000000D+00
    2.000000000000D+00 0.000000000000D+00-4.656612873077D-09 4.430000000000D+02
    4.578600000000D+04 4.000000000000D+00
14 24 12  8 14  0  0.0 5.560126155615D-04 7.730704965070D-12 0.000000000000D+00
    1.100000000000D+01 4.618750000000D+01 5.155929050855D-09-5.192849208156D-01
    2.235174179077D-06 5.071819759905D-03 6.951391696930D-06 5.153695650101D+03
    5.040000000000D+04 1.545995473862D-07 2.725521455766D+00 4.097819328308D-08
    9.447197072078D-01 2.390000000000D+02-2.863321815681D+00-8.456066514827D-09
   -3.428714248282D-11 1.000000000000D+00 2.344000000000D+03 0.000000000000D+00
    2.000000000000D+00 0.000000000000D+00-7.916241884232D-09 1.100000000000D+01
    4.321800000000D+04 4.000000000000D+00
22 24 12  8 14  0  0.0-8.499156683683D-05-2.501110429876D-12 0.000000000000D+00
    8.000000000000D+00 5.365625000000D+01 4.669123059145D-09-2.683607163124D+00
    2.773478627205D-06 1.364162063692D-02 7.055699825287D-06 5.153675846100D+03
    5.040000000000D+04 1.229345798492D-07 2.793926966798D+00 1.210719347000D-07
    9.601649461297D-01 2.433750000000D+02-1.081861253669D+00-7.930330330090D-09
   -1.428630936784D-11 1.000000000000D+00 2.344000000000D+03 0.000000000000D+00
    2.000000000000D+00 0.000000000000D+00-1.117587089539D-08 8.000000000000D+00
    4.321800000000D+04 4.000000000000D+00
 3 24 12  8 14  0  0.0 6.196717731655D-04 9.208633855451D-12 0.000000000000D+00
    5.000000000000D+00 7.437500000000D+00 4.165530653929D-09-2.156681611360D-01
    3.334134817123D-07 5.654829670675D-03 5.494803190231D-06 5.153613130569D+03
    5.040000000000D+04 4.842877388000D-08-4.312248230448D-01 9.313225746155D-08
    9.875159843817D-01 2.940625000000D+02 1.153345111533D+00-8.118195298277D-09
    3.207276453081D-10 1.000000000000D+00 2.344000000000D+03 0.000000000000D+00
    2.000000000000D+00 0.000000000000D+00 1.396983861923D-09 5.000000000000D+00
    4.321800000000D+04 4.000000000000D+00
17 24 12  8 14  0  0.0 5.276137962937D-04-1.568878360558D-11 0.000000000000D+00
    3.800000000000D+01 4.312500000000D+00 4.343752363293D-09 3.077949081345D+00
    3.874301910400D-07 1.347218651790D-02 7.234513759613D-06 5.153587963104D+03
    5.040000000000D+04 1.657754182816D-07-2.472360529980D+00 1.117587089539D-07
    9.661418632523D-01 2.423125000000D+02-1.259013112207D+00-7.842469527478D-09
   -3.960879272235D-10 1.000000000000D+00 2.344000000000D+03 0.000000000000D+00
    2.000000000000D+00 0.000000000000D+00-1.071020960808D-08 3.800000000000D+01
    4.321800000000D+04 4.000000000000D+00
 2 24 12  8 14  0  0.0-2.967515029013D-04 8.753886504564D-12 0.000000000000D+00
    1.130000000000D+02 3.400000000000D+01 4.109099731926D-09-3.027836048656D+00
    1.717358827591D-06 1.648386125453D-02 8.521601557732D-06 5.153685865402D+03
    5.040000000000D+04 1.192092895508D-07-1.569784171812D+00 2.160668373108D-07
    9.664396577824D-01 2.132187500000D+02-1.083683868194D+00-7.709249692622D-09
   -7.500312418118D-12 1.000000000000D+00 2.344000000000D+03 0.000000000000D+00
    2.000000000000D+00 0.000000000000D+00-1.769512891769D-08 1.130000000000D+02
    4.321800000000D+04 4.000000000000D+00
 7 24 12  8 14  0  0.0-1.636752858758D-05 1.477928890381D-12 0.000000000000D+00
    1.010000000000D+02-6.343750000000D+00 4.921990734956D-09 3.629135590464D-01
   -1.322478055954D-07 1.882332423702D-02 1.100450754166D-05 5.153772197723D+03
    5.040000000000D+04-2.291053533554D-07 1.656829771005D+00 1.676380634308D-07
    9.499774903756D-01 1.653125000000D+02-2.090408955889D+00-8.464995458181D-09
   -6.964575816824D-11 1.000000000000D+00 2.344000000000D+03 0.000000000000D+00
    2.000000000000D+00 0.000000000000D+00-1.071020960808D-08 1.010000000000D+02
    4.321800000000D+04 4.000000000000D+00
21 24 12  8 14  0  0.0 9.548058733344D-05-1.023181539495D-12 0.000000000000D+00
    4.000000000000D+01 3.078125000000D+01 4.131600669180D-09 2.941491427142D+00
    1.685693860054D-06 2.570870774798D-02 8.920207619667D-06 5.153636777878D+03
    5.040000000000D+04-2.048909664154D-07-1.578140909938D+00 3.594905138016D-07
    9.606805428293D-01 2.034375000000D+02-4.819605307221D-01-7.691034648178D-09
   -4.714482091388D-11 1.000000000000D+00 2.344000000000D+03 0.000000000000D+00
    2.000000000000D+00 0.000000000000D+00-1.024454832077D-08 4.000000000000D+01
    4.321800000000D+04 4.000000000000D+00
30 24 12  8 14  0  0.0-2.656602300704D-04 8.071765478235D-12 0.000000000000D+00
    1.460000000000D+02-4.812500000000D+00 5.126642116651D-09 1.878335889601D-01
   -2.458691596985D-07 7.188030867837D-03 1.102685928345D-05 5.153772466660D+03
    5.040000000000D+04-2.048909664154D-08 1.654526168033D+00 7.264316082001D-08
    9.351458329432D-01 1.498750000000D+02-2.460107644558D+00-8.418207795002D-09
   -3.571577341961D-12 1.000000000000D+00 2.344000000000D+03 0.000000000000D+00
    2.000000000000D+00 0.000000000000D+00 3.725290298462D-09 1.460000000000D+02
    4.321800000000D+04 4.000000000000D+00
 8 24 12  8 14  0  0.0 4.335171543062D-04 9.208633855451D-12 0.000000000000D+00
    8.500000000000D+01 5.281250000000D+00 4.722339561541D-09 3.125222373530D+00
    2.123415470123D-07 1.011057232972D-02 6.711110472679D-06 5.153721891403D+03
    5.040000000000D+04-1.247972249985D-07-2.570113592324D+00-5.960464477539D-08
    9.503980164179D-01 2.458125000000D+02 3.862049045387D-01-8.163554330520D-09
   -3.235849071817D-10 1.000000000000D+00 2.344000000000D+03 0.000000000000D+00
    2.000000000000D+00 0.000000000000D+00 4.656612873077D-09 8.500000000000D+01
    4.321800000000D+04 4.000000000000D+00
 6 24 12  8 13 59 44.0-2.859160304070D-05-2.910383045673D-11 0.000000000000D+00
    1.000000000000D+00 3.071875000000D+01 3.573005972898D-09 1.204180610704D+00
    1.624226570129D-06 3.358133719303D-03 9.668990969658D-06 5.153750907898D+03
    5.038400000000D+04 9.872019290924D-08-1.467064590363D+00-2.421438694000D-08
    9.891783142873D-01 2.051250000000D+02-7.559190372335D-01-7.717821478243D-09
    5.071639825584D-11 1.000000000000D+00 2.344000000000D+03 0.000000000000D+00
    2.000000000000D+00 0.000000000000D+00 3.725290298462D-09 1.000000000000D+00
    4.669800000000D+04 4.000000000000D+00
19 24 12  8 14  0  0.0 5.716728046536D-04 4.206412995700D-12 0.000000000000D+00
    5.500000000000D+01-2.812500000000D-01 4.389468553270D-09-1.337956052886D+00
    9.313225746155D-09 9.969142614864D-03 7.569789886475D-06 5.153593753815D+03
    5.040000000000D+04-9.126961231232D-08-2.428146440880D+00-8.568167686462D-08
    9.653295692113D-01 2.375312500000D+02 2.691153242752D+00-8.134267396316D-09
   -2.432244169875D-10 1.000000000000D+00 2.344000000000D+03 0.000000000000D+00
    2.000000000000D+00 0.000000000000D+00-1.536682248116D-08 5.500000000000D+01
    4.728600000000D+04 4.000000000000D+00
 9 24 12  8 13 59 44.0 4.782560281456D-04 1.637090463191D-11 0.000000000000D+00
    2.000000000000D+00-7.078125000000D+01 4.833772774610D-09-2.613707616282D+00
   -3.574416041374D-06 3.165977541357D-03 6.893649697304D-06 5.153551259995D+03
    5.038400000000D+04-5.401670932770D-08 5.839663471252D-01 8.195638656616D-08
    9.602019711234D-01 2.469375000000D+02 2.030600157139D+00-8.224271145333D-09
   -1.285767843106D-11 1.000000000000D+00 2.344000000000D+03 0.000000000000D+00
    2.000000000000D+00 0.000000000000D+00 9.313225746155D-10 2.000000000000D+00
    4.732800000000D+04 4.000000000000D+00
 4 24 12  8 14  0  0.0 4.925127141178D-04 6.252776074689D-12 0.000000000000D+00
    1.870000000000D+02-7.187500000000D+01 4.632692970257D-09 2.809521670598D+00
   -3.639608621597D-06 3.203425672837D-03 7.400289177895D-06 5.153684600830D+03
    5.040000000000D+04-1.005828380585D-07 6.449727564470D-01-2.235174179077D-08
    9.663982542749D-01 2.417812500000D+02-2.988846993840D+00-8.091051310478D-09
   -2.535819912792D-11 1.000000000000D+00 2.344000000000D+03 0.000000000000D+00
    2.000000000000D+00 0.000000000000D+00-4.656612873077D-09 4.430000000000D+02
    4.578600000000D+04 4.000000000000D+00
14 24 12  8 14  0  0.0 5.560126155615D-04 7.730704965070D-12 0.000000000000D+00
    1.100000000000D+01 4.618750000000D+01 5.155929050855D-09-5.192849208156D-01
    2.235174179077D-06 5.071819759905D-03 6.951391696930D-06 5.153695650101D+03
    5.040000000000D+04 1.545995473862D-07 2.725521455766D+00 4.097819328308D-08
    9.447197072078D-01 2.390000000000D+02-2.863321815681D+00-8.456066514827D-09
   -3.428714248282D-11 1.000000000000D+00 2.344000000000D+03 0.000000000000D+00
    2.000000000000D+00 0.000000000000D+00-7.916241884232D-09 1.100000000000D+01
    4.321800000000D+04 4.000000000000D+00
 9 24 12  8 13 59 44.0 4.782560281456D-04 1.637090463191D-11 0.000000000000D+00
    2.000000000000D+00-7.078125000000D+01 4.833772774610D-09-2.613707616282D+00
   -3.574416041374D-06 3.165977541357D-03 6.893649697304D-06 5.153551259995D+03
    5.038400000000D+04-5.401670932770D-08 5.839663471252D-01 8.195638656616D-08
    9.602019711234D-01 2.469375000000D+02 2.030600157139D+00-8.224271145333D-09
   -1.285767843106D-11 1.000000000000D+00 2.344000000000D+03 0.000000000000D+00
    2.000000000000D+00 0.000000000000D+00 9.313225746155D-10 2.000000000000D+00
    4.732800000000D+04 4.000000000000D+00
22 24 12  8 14  0  0.0-8.499156683683D-05-2.501110429876D-12 0.000000000000D+00
    8.000000000000D+00 5.365625000000D+01 4.669123059145D-09-2.683607163124D+00
    2.773478627205D-06 1.364162063692D-02 7.055699825287D-06 5.153675846100D+03
    5.040000000000D+04 1.229345798492D-07 2.793926966798D+00 1.210719347000D-07
    9.601649461297D-01 2.433750000000D+02-1.081861253669D+00-7.930330330090D-09
   -1.428630936784D-11 1.000000000000D+00 2.344000000000D+03 0.000000000000D+00
    2.000000000000D+00 0.000000000000D+00-1.117587089539D-08 8.000000000000D+00
    4.321800000000D+04 4.000000000000D+00
 3 24 12  8 14  0  0.0 6.196717731655D-04 9.208633855451D-12 0.000000000000D+00
    5.000000000000D+00 7.437500000000D+00 4.165530653929D-09-2.156681611360D-01
    3.334134817123D-07 5.654829670675D-03 5.494803190231D-06 5.153613130569D+03
    5.040000000000D+04 4.842877388000D-08-4.312248230448D-01 9.313225746155D-08
    9.875159843817D-01 2.940625000000D+02 1.153345111533D+00-8.118195298277D-09
    3.207276453081D-10 1.000000000000D+00 2.344000000000D+03 0.000000000000D+00
    2.000000000000D+00 0.000000000000D+00 1.396983861923D-09 5.000000000000D+00
    4.321800000000D+04 4.000000000000D+00
17 24 12  8 14  0  0.0 5.276137962937D-04-1.568878360558D-11 0.000000000000D+00
    3.800000000000D+01 4.312500000000D+00 4.343752363293D-09 3.077949081345D+00
    3.874301910400D-07 1.347218651790D-02 7.234513759613D-06 5.153587963104D+03
    5.040000000000D+04 1.657754182816D-07-2.472360529980D+00 1.117587089539D-07
    9.661418632523D-01 2.423125000000D+02-1.259013112207D+00-7.842469527478D-09
   -3.960879272235D-10 1.000000000000D+00 2.344000000000D+03 0.000000000000D+00
    2.000000000000D+00 0.000000000000D+00-1.071020960808D-08 3.800000000000D+01
    4.321800000000D+04 4.000000000000D+00
 2 24 12  8 14  0  0.0-2.967515029013D-04 8.753886504564D-12 0.000000000000D+00
    1.130000000000D+02 3.400000000000D+01 4.109099731926D-09-3.027836048656D+00
    1.717358827591D-06 1.648386125453D-02 8.521601557732D-06 5.153685865402D+03
    5.040000000000D+04 1.192092895508D-07-1.569784171812D+00 2.160668373108D-07
    9.664396577824D-01 2.132187500000D+02-1.083683868194D+00-7.709249692622D-09
   -7.500312418118D-12 1.000000000000D+00 2.344000000000D+03 0.000000000000D+00
    2.000000000000D+00 0.000000000000D+00-1.769512891769D-08 1.130000000000D+02
    4.321800000000D+04 4.000000000000D+00
21 24 12  8 14  0  0.0 9.548058733344D-05-1.023181539495D-12 0.000000000000D+00
    4.000000000000D+01 3.078125000000D+01 4.131600669180D-09 2.941491427142D+00
    1.685693860054D-06 2.570870774798D-02 8.920207619667D-06 5.153636777878D+03
    5.040000000000D+04-2.048909664154D-07-1.578140909938D+00 3.594905138016D-07
    9.606805428293D-01 2.034375000000D+02-4.819605307221D-01-7.691034648178D-09
   -4.714482091388D-11 1.000000000000D+00 2.344000000000D+03 0.000000000000D+00
    2.000000000000D+00 0.000000000000D+00-1.024454832077D-08 4.000000000000D+01
    4.321800000000D+04 4.000000000000D+00
 8 24 12  8 14  0  0.0 4.335171543062D-04 9.208633855451D-12 0.000000000000D+00
    8.500000000000D+01 5.281250000000D+00 4.722339561541D-09 3.125222373530D+00
    2.123415470123D-07 1.011057232972D-02 6.711110472679D-06 5.153721891403D+03
    5.040000000000D+04-1.247972249985D-07-2.570113592324D+00-5.960464477539D-08
    9.503980164179D-01 2.458125000000D+02 3.862049045387D-01-8.163554330520D-09
   -3.235849071817D-10 1.000000000000D+00 2.344000000000D+03 0.000000000000D+00
    2.000000000000D+00 0.000000000000D+00 4.656612873077D-09 8.500000000000D+01
    4.321800000000D+04 4.000000000000D+00
19 24 12  8 14  0  0.0 5.716728046536D-04 4.206412995700D-12 0.000000000000D+00
    5.500000000000D+01-2.812500000000D-01 4.389468553270D-09-1.337956052886D+00
    9.313225746155D-09 9.969142614864D-03 7.569789886475D-06 5.153593753815D+03
    5.040000000000D+04-9.126961231232D-08-2.428146440880D+00-8.568167686462D-08
    9.653295692113D-01 2.375312500000D+02 2.691153242752D+00-8.134267396316D-09
   -2.432244169875D-10 1.000000000000D+00 2.344000000000D+03 0.000000000000D+00
    2.000000000000D+00 0.000000000000D+00-1.536682248116D-08 5.500000000000D+01
    4.728600000000D+04 4.000000000000D+00
 6 24 12  8 13 59 44.0-2.859160304070D-05-2.910383045673D-11 0.000000000000D+00
    1.000000000000D+00 3.071875000000D+01 3.573005972898D-09 1.204180610704D+00
    1.624226570129D-06 3.358133719303D-03 9.668990969658D-06 5.153750907898D+03
    5.038400000000D+04 9.872019290924D-08-1.467064590363D+00-2.421438694000D-08
    9.891783142873D-01 2.051250000000D+02-7.559190372335D-01-7.717821478243D-09
    5.071639825584D-11 1.000000000000D+00 2.344000000000D+03 0.000000000000D+00
    2.000000000000D+00 0.000000000000D+00 3.725290298462D-09 1.000000000000D+00
    4.669800000000D+04 4.000000000000D+00
 2 24 12  8 16  0  0.0-2.966881729662D-04 8.753886504564D-12 0.000000000000D+00
    1.140000000000D+02 2.618750000000D+01 4.051954494455D-09-1.977641759026D+00
    1.708045601845D-06 1.648294413462D-02 8.800998330116D-06 5.153687658310D+03
    5.760000000000D+04-7.823109626770D-08-1.569839737829D+00 3.874301910400D-07
    9.664387727169D-01 2.151562500000D+02-1.083708938221D+00-7.888900032923D-09
   -3.893019302737D-11 1.000000000000D+00 2.344000000000D+03 0.000000000000D+00
    2.000000000000D+00 0.000000000000D+00-1.769512891769D-08 1.140000000000D+02
    5.041800000000D+04 4.000000000000D+00
14 24 12  8 16  0  0.0 5.560680292547D-04 7.730704965070D-12 0.000000000000D+00
    1.200000000000D+01 5.006250000000D+01 5.233432279175D-09 5.308899178560D-01
    2.598389983177D-06 5.072919069789D-03 6.366521120071D-06 5.153697748184D+03
    5.760000000000D+04 5.774199962616D-08 2.725460212163D+00 4.842877388000D-08
    9.447191732427D-01 2.456562500000D+02-2.863324906827D+00-8.521069222450D-09
   -3.750156209059D-11 1.000000000000D+00 2.344000000000D+03 0.000000000000D+00
    2.000000000000D+00 0.000000000000D+00-7.916241884232D-09 1.200000000000D+01
    5.041800000000D+04 4.000000000000D+00
 4 24 12  8 16  0  0.0 4.925574176013D-04 6.252776074689D-12 0.000000000000D+00
    1.880000000000D+02-6.925000000000D+01 4.563761527558D-09-2.423472694108D+00
   -3.669410943985D-06 3.202565596439D-03 7.240101695061D-06 5.153686199188D+03
    5.760000000000D+04-5.401670932770D-08 6.449144108853D-01-8.195638656616D-08
    9.663980728731D-01 2.476250000000D+02-2.988863704753D+00-8.106409093049D-09
   -3.928735076157D-12 1.000000000000D+00 2.344000000000D+03 0.000000000000D+00
    2.000000000000D+00 0.000000000000D+00-4.656612873077D-09 4.440000000000D+02
    5.041800000000D+04 4.000000000000D+00
 8 24 12  8 16  0  0.0 4.335837438703D-04 9.208633855451D-12 0.000000000000D+00
    8.600000000000D+01-7.437500000000D+00 4.838772982889D-09-2.107925606351D+00
   -4.358589649200D-07 1.011211634614D-02 6.342306733131D-06 5.153718309402D+03
    5.760000000000D+04 2.235174179077D-08-2.570173416896D+00-1.452863216400D-07
    9.503957093961D-01 2.528750000000D+02 3.863220301489D-01-8.266058600234D-09
   -2.235807416067D-10 1.000000000000D+00 2.344000000000D+03 0.000000000000D+00
    2.000000000000D+00 0.000000000000D+00 4.656612873077D-09 8.600000000000D+01
    5.041800000000D+04 4.000000000000D+00
 6 24 12  8 15 59 44.0-2.880115061998D-05-2.910383045673D-11 0.000000000000D+00
    2.000000000000D+00 2.578125000000D+01 3.599078487494D-09 2.254642952277D+00
    1.460313796997D-06 3.358899732120D-03 9.203329682350D-06 5.153748582840D+03
    5.758400000000D+04-2.235174179077D-08-1.467119338609D+00 2.793967723846D-08
    9.891786010192D-01 2.164062500000D+02-7.562547696181D-01-7.642818354062D-09
   -3.107272287506D-11 1.000000000000D+00 2.344000000000D+03 0.000000000000D+00
    2.000000000000D+00 0.000000000000D+00 3.725290298462D-09 2.000000000000D+00
    5.041800000000D+04 4.000000000000D+00
22 24 12  8 16  0  0.0-8.500972762704D-05-2.501110429876D-12 0.000000000000D+00
    9.000000000000D+00 5.034375000000D+01 4.844130348901D-09-1.633363404919D+00
    2.643093466759D-06 1.364088954870D-02 6.793066859245D-06 5.153677957535D+03
    5.760000000000D+04-3.054738044739D-07 2.793868732418D+00 1.657754182816D-07
    9.601628980444D-01 2.507500000000D+02-1.081924722370D+00-8.341776039884D-09
   -2.571535686212D-11 1.000000000000D+00 2.344000000000D+03 0.000000000000D+00
    2.000000000000D+00 0.000000000000D+00-1.117587089539D-08 9.000000000000D+00
    5.041800000000D+04 4.000000000000D+00
 9 24 12  8 15 59 44.0 4.783738404512D-04 1.637090463191D-11 0.000000000000D+00
    6.000000000000D+01-6.796875000000D+01 4.769127224720D-09-1.563229603931D+00
   -3.440305590630D-06 3.165843314491D-03 6.852671504021D-06 5.153552522659D+03
    5.758400000000D+04-8.195638656616D-08 5.839070755363D-01 2.235174179077D-08
    9.602018497012D-01 2.521875000000D+02 2.030379869471D+00-8.241771874309D-09
    1.071473202588D-12 1.000000000000D+00 2.344000000000D+03 0.000000000000D+00
    2.000000000000D+00 0.000000000000D+00 9.313225746155D-10 6.000000000000D+01
    5.041800000000D+04 4.000000000000D+00
19 24 12  8 16  0  0.0 5.717035382986D-04 4.206412995700D-12 0.000000000000D+00
    5.600000000000D+01 1.437500000000D+00 4.528045754138D-09-2.878057678312D-01
   -5.401670932770D-08 9.968615835533D-03 7.413327693939D-06 5.153591960907D+03
    5.760000000000D+04 1.322478055954D-07-2.428204272957D+00-1.732259988785D-07
    9.653270573810D-01 2.443750000000D+02 2.691232433433D+00-8.222485356662D-09
   -4.196603376804D-10 1.000000000000D+00 2.344000000000D+03 0.000000000000D+00
    2.000000000000D+00 0.000000000000D+00-1.536682248116D-08 5.600000000000D+01
    5.041800000000D+04 4.000000000000D+00
 3 24 12  8 16  0  0.0 6.197378970683D-04 9.094947017729D-12 0.000000000000D+00
    7.100000000000D+01 9.281250000000D+00 3.994094941515D-09 8.344515079690D-01
    3.241002559662D-07 5.656366236508D-03 5.664303898811D-06 5.153616220474D+03
    5.760000000000D+04-5.587935447693D-08-4.312828087287D-01 6.519258022308D-08
    9.875180295412D-01 2.826250000000D+02 1.153439106946D+00-8.086051102199D-09
    2.650110387735D-10 1.000000000000D+00 2.344000000000D+03 0.000000000000D+00
    2.000000000000D+00 0.000000000000D+00 1.396983861923D-09 7.100000000000D+01
    5.041800000000D+04 4.000000000000D+00
17 24 12  8 16  0  0.0 5.275006406009D-04-1.568878360558D-11 0.000000000000D+00
    3.900000000000D+01 4.750000000000D+00 4.424112853487D-09-2.154988405106D+00
    3.390014171600D-07 1.347235601861D-02 7.124617695808D-06 5.153587863922D+03
    5.760000000000D+04 1.247972249985D-07-2.472416805513D+00 2.998858690262D-07
    9.661386375180D-01 2.462812500000D+02-1.259028481624D+00-7.946045270394D-09
   -4.278749655669D-10 1.000000000000D+00 2.344000000000D+03 0.000000000000D+00
    2.000000000000D+00 0.000000000000D+00-1.071020960808D-08 3.900000000000D+01
    5.041800000000D+04 4.000000000000D+00
21 24 12  8 16  0  0.0 9.547313675284D-05-1.023181539495D-12 0.000000000000D+00
    4.500000000000D+01 2.478125000000D+01 4.098742157634D-09-2.291512351442D+00
    1.497566699982D-06 2.570874697994D-02 9.588897228241D-06 5.153636413574D+03
    5.760000000000D+04-4.712492227554D-07-1.578196633950D+00 2.477318048477D-07
    9.606796460605D-01 2.000937500000D+02-4.819419984758D-01-7.838897950136D-09
   -1.571494030463D-11 1.000000000000D+00 2.344000000000D+03 0.000000000000D+00
    2.000000000000D+00 0.000000000000D+00-1.024454832077D-08 4.500000000000D+01
    5.044200000000D+04 4.000000000000D+00
20 24 12  8 16  0  0.0 3.680633381009D-04-3.410605131648D-13 0.000000000000D+00
    2.100000000000D+01 2.718750000000D+01 4.580547941065D-09 2.547262359885D+00
    1.432374119759D-06 3.851335030049D-03 5.843117833138D-06 5.153654777527D+03
    5.760000000000D+04 2.421438694000D-08-6.173370123931D-01-1.043081283569D-07
    9.565930707182D-01 2.630937500000D+02-2.419370208069D+00-8.283559329210D-09
    3.693010971588D-10 1.000000000000D+00 2.344000000000D+03 0.000000000000D+00
    2.800000000000D+00 0.000000000000D+00-8.381903171539D-09 2.100000000000D+01
    5.383800000000D+04 4.000000000000D+00
