     2.10           OBSERVATION DATA    G (GPS)             RINEX VERSION / TYPE
teqc  2002Mar14                         20110314 18:34:14UTCPGM / RUN BY / DATE
Linux 2.0.36|Pentium II|gcc -static|Linux|486/DX+           COMMENT
teqc  2002Mar14     GSI, JAPAN          20110314 16:58:40UTCCOMMENT
0214                                                        MARKER NAME
GSI, JAPAN          GEOSPATIAL INFORMATION AUTHORITY OF JAPAOBSERVER / AGENCY
00000               TRIMBLE NETRS       Nav 1.11 Sig 0.00   REC # / TYPE / VERS
                    TRM29659.00     GSI                     ANT # / TYPE
 -3959966.0416  3234976.2078  3799714.8448                  APPROX POSITION XYZ
        0.0000        0.0000        0.0000                  ANTENNA: DELTA H/E/N
     1     1                                                WAVELENGTH FACT L1/2
     6    L1    C1    L2    P2    S1    S2                  # / TYPES OF OBSERV
    30.0000                                                 INTERVAL
teqc windowed: start @ 2011 Mar 11 00:00:00.000             COMMENT
teqc windowed:  end  @ 2011 Mar 11 23:59:59.000             COMMENT
  2011     3    11     0     0    0.0000000     GPS         TIME OF FIRST OBS
                                                            END OF HEADER
 11  3 11  0  0  0.0000000  0  9G 2G 4G 5G10G12G13G17G20G23
 -16952060.383 7  22185671.242 7 -13132726.11948  22185664.52748        48.000
        38.0004
 -24635836.629 7  20327858.047 7 -19182603.58349  20327853.64549        51.500
        46.5004
  -6673607.101 6  23917618.922 6  -5192549.03347  23917616.66047        43.000
        27.7504
 -23955228.133 8  20486959.031 8 -18506258.46049  20486954.44149        52.500
        44.2504
  -3308281.834 3  24604754.742 3  -2464718.42346  24604751.77346        37.000
        22.5004
 -22564447.566 7  20940502.250 7 -17570315.90749  20940497.66849        50.750
        44.0004
 -19868454.763 7  21526205.258 7 -15468716.70949  21526201.16849        48.250
        41.7504
   1339730.089 4  24673302.859 4  -1652997.93446  24673301.39846        38.250
        22.5004
 -14086775.255 7  22605608.969 7 -10969146.82548  22605602.69148        49.250
        35.5004
 11  3 11  0  0 30.0000000  0  9G 2G 4G 5G10G12G13G17G20G23
 -17029012.387 6  22171027.750 6 -13192688.68748  22171021.00048        47.250
        38.7504
 -24649657.581 8  20325227.625 8 -19193373.13749  20325223.50849        53.250
        46.2504
  -6757569.401 5  23901642.016 5  -5257974.17547  23901638.81247        42.250
        28.2504
 -23985748.443 7  20481151.125 7 -18530040.49049  20481146.43849        51.750
        44.5004
  -3283354.048 3  24609500.078 3  -2445294.23546  24609496.20346        36.500
        21.7504
 -22569232.987 7  20939591.672 7 -17574044.78449  20939586.91849        51.250
        44.0004
 -19783925.682 7  21542290.555 7 -15402849.93849  21542286.77349        48.250
        41.5004
   1433871.032 5  24691217.773 5  -1579641.47046  24691216.49246        39.500
        21.2504
 -14024466.269 7  22617466.188 7 -10920594.35548  22617459.78948        49.000
        35.7504
 11  3 11  0  1  0.0000000  0  9G 2G 4G 5G10G12G13G17G20G23
 -17105871.013 7  22156402.125 7 -13252578.49948  22156395.78948        47.750
        38.2504
 -24663171.672 8  20322656.461 8 -19203903.57949  20322651.95349        53.750
        46.5004
  -6841351.364 6  23885698.492 6  -5323258.81547  23885696.39847        44.250
        29.7504
 -24015873.194 7  20475418.492 7 -18553514.29149  20475414.02049        51.500
        45.0004
  -3257976.390 3  24614327.711 3  -2425519.48146  24614324.76246        36.000
        22.0004
 -22573383.859 7  20938802.109 7 -17577279.20949  20938797.35249        51.500
        44.0004
 -19699005.712 7  21558450.438 7 -15336678.57649  21558446.35249        48.500
        41.7504
   1527983.012 4  24709125.281 4  -1506307.58146  24709124.52746        38.000
        20.7504
 -13961706.517 7  22629409.219 7 -10871690.63948  22629403.39548        48.750
        36.0004
 11  3 11  0  1 30.0000000  0  9G 2G 4G 5G10G12G13G17G20G23
 -17182636.318 7  22141793.945 7 -13312395.59648  22141787.19548        47.750
        39.0004
 -24676379.210 8  20320143.031 8 -19214195.13149  20320138.83249        53.500
        46.5004
  -6924953.383 6  23869790.344 6  -5388403.24047  23869787.26647        44.000
        28.2504
 -24045604.083 7  20469761.023 7 -18576681.19849  20469756.23849        51.500
        44.5004
  -3232151.523 2  24619243.844 2  -2405396.27546  24619239.75846        35.500
        21.0004
 -22576901.209 7  20938132.695 7 -17580019.97149  20938127.78549        51.000
        44.0004
 -19613698.342 7  21574683.867 7 -15270205.33449  21574679.29749        48.250
        41.7504
   1622064.647 4  24727032.938 4  -1432997.39746  24727027.87946        39.000
        21.5004
 -13898499.001 7  22641436.992 7 -10822438.03748  22641430.75448        49.000
        36.5004
 11  3 11  0  2  0.0000000  0  9G 2G 4G 5G10G12G13G17G20G23
 -17259305.693 7  22127204.227 7 -13372137.93648  22127198.03148        48.000
        38.2504
 -24689278.070 8  20317688.664 8 -19224246.18449  20317684.04349        54.000
        46.7504
  -7008373.927 6  23853914.828 6  -5453406.22547  23853911.43047        43.250
        27.5004
 -24074940.196 7  20464178.422 7 -18599540.48549  20464174.21949        51.000
        44.5004
  -3205879.969 3  24624243.531 3  -2384924.99246  24624239.36346        36.000
        20.5004
 -22579783.724 7  20937584.266 7 -17582266.05549  20937579.32049        51.750
        43.7504
 -19528004.398 7  21590991.211 7 -15203430.85649  21590986.74649        49.000
        42.0004
   1716116.007 4  24744925.742 4  -1359710.76446  24744925.19146        38.500
        21.5004
 -13834844.673 7  22653550.156 7 -10772837.27248  22653543.28948        48.750
        36.5004
 11  3 11  0  2 30.0000000  0  9G 2G 4G 5G10G12G13G17G20G23
 -17335878.551 7  22112633.109 7 -13431805.06948  22112626.26648        48.500
        39.0004
 -24701868.037 8  20315292.625 8 -19234056.54149  20315288.07449        52.500
        46.2504
  -7091613.203 6  23838074.641 6  -5518267.93647  23838072.38347        43.000
        29.0004
 -24103882.740 7  20458670.812 7 -18622093.08749  20458666.50049        51.500
        45.0004
  -3179164.656 3  24629325.266 3  -2364107.88046  24629322.14546        37.000
        21.0004
 -22582032.090 7  20937156.336 7 -17584017.98549  20937151.40649        50.750
        43.5004
 -19441927.262 7  21607370.695 7 -15136357.80749  21607366.48849        48.000
        41.7504
   1810135.709 3  24762819.344 3  -1286448.79846  24762817.14546        36.500
        21.0004
 -13770746.273 7  22665747.594 7 -10722890.48448  22665740.75848        50.000
        36.5004
 11  3 11  0  3  0.0000000  0  9G 2G 4G 5G10G12G13G17G20G23
 -17412353.343 6  22098080.445 6 -13491395.76948  22098073.55948        47.250
        37.7504
 -24714148.559 8  20312955.641 8 -19243625.77149  20312951.12949        52.750
        46.5004
  -7174670.475 5  23822269.555 5  -5582987.82447  23822267.22747        41.000
        28.0004
 -24132432.203 7  20453238.062 7 -18644339.39949  20453233.20749        51.250
        44.7504
  -3152007.136 3  24634494.305 3  -2342946.20446  24634490.29346        36.250
        21.5004
 -22583646.124 7  20936848.898 7 -17585275.64049  20936844.23449        51.250
        44.5004
 -19355469.173 7  21623822.953 7 -15068987.88848  21623819.60948        47.750
        40.5004
   1904122.496 4  24780703.680 4  -1213212.52246  24780701.92646        39.000
        20.7504
 -13706206.773 7  22678029.195 7 -10672599.97448  22678022.80148        49.500
        34.7504
 11  3 11  0  3 30.0000000  0  9G 2G 4G 5G10G12G13G17G20G23
 -17488728.405 6  22083546.781 6 -13550908.79548  22083540.14548        47.250
        39.5004
 -24726118.175 8  20310677.719 8 -19252952.73749  20310673.52349        53.000
        46.5004
  -7257545.346 6  23806499.508 6  -5647565.58847  23806496.61747        44.000
        29.2504
 -24160588.385 7  20447879.891 7 -18666279.25949  20447875.50849        52.000
        44.7504
  -3124409.093 4  24639746.703 4  -2321441.24846  24639742.79746        38.250
        22.0004
 -22584625.325 7  20936662.570 7 -17586038.62449  20936657.67649        51.750
        44.0004
 -19268632.169 7  21640347.555 7 -15001322.69349  21640343.79749        48.500
        41.2504
   1998076.010 3  24798582.188 3  -1140002.10246  24798580.44146        36.000
        19.5004
 -13641226.920 7  22690393.930 7 -10621966.34148  22690388.58248        48.500
        35.2504
 11  3 11  0  4  0.0000000  0  9G 2G 4G 5G10G12G13G17G20G23
 -17565002.696 7  22069031.766 7 -13610343.27748  22069025.93048        47.500
        39.2504
 -24737776.217 8  20308459.336 8 -19262036.91649  20308455.12149        53.500
        46.5004
  -7340237.438 5  23790763.109 5  -5712000.94147  23790761.15647        42.000
        30.5004
 -24188352.414 7  20442596.391 7 -18687913.56549  20442592.21949        51.250
        44.5004
  -3096372.736 4  24645082.594 4  -2299594.76246  24645078.30546        38.750
        22.5004
 -22584970.074 7  20936597.000 7 -17586307.23549  20936592.12149        52.250
        43.7504
 -19181419.123 7  21656944.297 7 -14933364.52049  21656940.38749        49.500
        42.0004
   2091995.270 4  24816455.594 4  -1066818.40446  24816453.05546        38.000
        19.2504
 -13575809.743 7  22702841.867 7 -10570991.93648  22702836.87548        47.500
        34.7504
 11  3 11  0  4 30.0000000  0  9G 2G 4G 5G10G12G13G17G20G23
 -17641174.845 7  22054536.703 7 -13669698.16448  22054531.04348        48.000
        38.5004
 -24749121.881 8  20306300.539 8 -19270877.68849  20306296.12949        53.000
        46.7504
  -7422746.153 6  23775062.422 6  -5776293.32847  23775060.32047        42.750
        30.2504
 -24215724.472 7  20437388.172 7 -18709242.42349  20437383.62549        51.000
        44.5004
  -3067899.620 3  24650499.969 3  -2277407.92946  24650496.46146        37.000
        23.5004
 -22584680.347 7  20936651.828 7 -17586081.43749  20936647.05949        52.000
        43.7504
 -19093831.988 7  21673611.430 7 -14865114.85149  21673607.15649        50.500
        41.7504
   2185879.169 4  24834320.688 4   -993662.21346  24834318.72346        37.750
        19.5004
 -13509956.955 7  22715373.836 7 -10519678.08248  22715368.32448        47.750
        35.0004
 11  3 11  0  5  0.0000000  0  9G 2G 4G 5G10G12G13G17G20G23
 -17717243.123 7  22040061.836 7 -13728972.11448  22040055.26248        48.250
        39.0004
 -24760154.136 8  20304201.078 8 -19279474.25049  20304196.93449        53.500
        46.7504
  -7505070.940 6  23759396.711 6  -5840442.47447  23759394.55947        43.000
        30.5004
 -24242704.816 7  20432253.672 7 -18730266.05549  20432249.09449        51.250
        44.5004
  -3038991.478 4  24656001.367 4  -2254882.13946  24655996.88346        39.000
        22.2504
 -22583756.216 7  20936828.016 7 -17585361.29149  20936823.10949        52.000
        43.7504
 -19005873.277 7  21690349.703 7 -14796575.63548  21690345.70748        50.000
        41.0004
   2279727.283 3  24852179.984 3   -920533.92046  24852178.67646        35.750
        19.0004
 -13443670.863 6  22727987.500 6 -10468026.61548  22727982.30948        47.000
        35.5004
 11  3 11  0  5 30.0000000  0  9G 2G 4G 5G10G12G13G17G20G23
 -17793206.555 7  22025605.992 7 -13788164.37348  22025599.75048        48.000
        38.5004
 -24770872.212 7  20302161.688 7 -19287826.00749  20302157.19949        51.750
        46.7504
  -7587211.441 6  23743766.164 6  -5904447.98647  23743763.51247        43.250
        29.5004
 -24269293.880 7  20427193.875 7 -18750984.79549  20427189.62549        49.500
        44.5004
  -3009650.402 4  24661584.422 4  -2232018.97446  24661581.01246        38.500
        22.5004
 -22582197.765 7  20937124.320 7 -17584146.87949  20937119.70349        50.750
        44.0004
 -18917545.511 7  21707157.508 7 -14727748.86048  21707153.68848        49.500
        40.5004
   2373538.532 3  24870032.992 3   -847434.29545  24870030.80945        36.750
        18.5004
 -13376953.697 7  22740683.281 7 -10416039.21848  22740677.71548        47.500
        35.0004
 11  3 11  0  6  0.0000000  0  9G 2G 4G 5G10G12G13G17G20G23
 -17869062.782 7  22011170.984 7 -13847273.10148  22011164.86748        49.000
        38.7504
 -24781274.483 8  20300181.883 8 -19295931.66749  20300177.59849        53.500
        46.5004
  -7669166.447 6  23728170.445 6  -5968308.98447  23728167.78947        43.250
        30.0004
 -24295491.888 7  20422208.680 7 -18771398.82649  20422203.90649        50.000
        45.2504
  -2979877.901 4  24667250.000 4  -2208819.65346  24667246.75446        37.500
        22.2504
 -22580004.180 7  20937541.805 7 -17582437.56149  20937537.24249        51.250
        43.7504
 -18828850.135 7  21724035.586 7 -14658635.64548  21724032.07448        47.750
        40.5004
   2467312.930 2  24887875.398 2   -774363.37845  24887874.33245        34.250
        18.2504
 -13309806.992 6  22753460.820 6 -10363717.11548  22753455.49648        47.000
        35.2504
 11  3 11  0  6 30.0000000  0  9G 2G 4G 5G10G12G13G17G20G23
 -17944811.582 7  21996756.805 7 -13906298.09848  21996750.33648        48.500
        38.7504
 -24791361.232 7  20298262.344 7 -19303791.46449  20298258.06249        52.000
        46.2504
  -7750936.691 6  23712609.625 6  -6032025.98947  23712606.61347        43.500
        28.7504
 -24321300.113 7  20417297.742 7 -18791509.11049  20417292.66049        50.000
        44.7504
  -2949676.322 4  24672997.719 4  -2185286.01646  24672994.11746        39.000
        22.7504
 -22577176.687 7  20938079.977 7 -17580234.28749  20938075.10549        50.250
        43.7504
 -18739791.015 7  21740983.469 7 -14589238.98449  21740978.88749        49.500
        41.5004
   2561048.51113  24905713.352 3   -701322.63755  24905710.88745        37.0001
        16.7505
 -13242234.249 7  22766319.531 7 -10311063.04748  22766314.32048        48.500
        34.7504
 11  3 11  0  7  0.0000000  0  9G 2G 4G 5G10G12G13G17G20G23
 -18020451.108 7  21982362.891 7 -13965237.97448  21982356.60948        48.750
        39.0004
 -24801131.173 8  20296403.359 8 -19311404.39349  20296399.03949        53.250
        46.5004
  -7832521.241 5  23697084.062 5  -6095598.30747  23697082.35947        40.750
        28.2504
 -24346718.885 7  20412460.172 7 -18811315.92549  20412456.29749        50.500
        45.2504
  -2919047.569 4  24678825.773 4  -2161419.44946  24678821.85246        37.500
        21.7504
 -22573715.284 7  20938738.531 7 -17577537.05949  20938734.03149        50.500
        44.0004
 -18650369.985 7  21757999.672 7 -14519560.30848  21757995.83648        48.750
        40.2504
   2654744.587 1  24923542.078 1   -628312.68545  24923541.12145        33.250
        17.2504
 -13174237.061 7  22779258.961 7 -10258078.23348  22779252.88348        48.000
        34.5004
 11  3 11  0  7 30.0000000  0  9G 2G 4G 5G10G12G13G17G20G23
 -18095979.531 7  21967990.008 7 -14024091.26348  21967984.04748        48.750
        39.0004
 -24810582.877 8  20294604.609 8 -19318769.36849  20294600.12949        53.500
        46.2504
  -7913919.508 6  23681594.281 6  -6159025.44347  23681591.66847        43.750
        28.2504
 -24371748.041 7  20407697.180 7 -18830819.14649  20407693.14149        50.000
        44.7504
  -2887993.044 3  24684735.562 3  -2137221.17346  24684731.81646        35.750
        22.2504
 -22569619.599 7  20939517.867 7 -17574345.58449  20939513.27749        51.250
        43.7504
 -18560589.141 7  21775084.406 7 -14449601.22448  21775079.81648        49.500
        40.5004
   2748400.958 3  24941366.766 3   -555333.73145  24941363.79345        36.000
        18.2504
 -13105816.954 7  22792279.359 7 -10204763.88248  22792273.55948        48.750
        35.0004
 11  3 11  0  8  0.0000000  0  9G 2G 4G 5G10G12G13G17G20G23
 -18171395.430 6  21953638.828 6 -14082856.88048  21953632.87548        47.250
        38.5004
 -24819715.777 8  20292866.852 8 -19325885.88649  20292862.48849        53.500
        46.5004
  -7995130.716 6  23666140.742 6  -6222306.83447  23666137.96147        43.000
        28.5004
 -24396388.205 7  20403008.609 7 -18850019.25749  20403004.09049        51.000
        45.0004
  -2856515.042 1  24690722.797 1  -2112692.93746  24690720.24646        33.500
        21.2504
 -22564889.928 7  20940418.031 7 -17570660.08249  20940412.96549        51.750
        44.0004
 -18470451.163 7  21792236.648 7 -14379363.85548  21792232.52048        49.000
        40.7504
   2842016.509 1  24959177.922 1   -482386.52045  24959175.73845        33.750
        17.7504
 -13036976.869 7  22805379.016 7 -10151122.28148  22805373.03148        48.000
        35.0004
 11  3 11  0  8 30.0000000  0  9G 2G 4G 5G10G12G13G17G20G23
 -18246698.053 7  21939309.453 7 -14141534.21148  21939302.51648        48.500
        39.0004
 -24828529.521 8  20291189.453 8 -19332753.72749  20291185.20349        52.750
        46.5004
  -8076155.359 6  23650722.680 6  -6285442.86847  23650719.37947        44.750
        29.2504
 -24420640.379 7  20398393.727 7 -18868917.03149  20398389.26249        52.000
        45.0004
  -2824616.194 1  24696792.086 1  -2087836.68946  24696791.09046        31.500
        22.5004
 -22559526.982 7  20941438.648 7 -17566481.14549  20941433.84449        52.250
        43.7504
 -18379959.191 7  21809457.094 7 -14308850.64948  21809452.82448        49.250
        40.7504
   2935590.243 3  24976986.367 3   -409471.99145  24976983.75045        36.000
        16.7504
 -12967719.357 7  22818558.141 7 -10097155.41848  22818552.77048        48.000
        34.5004
 11  3 11  0  9  0.0000000  0  9G 2G 4G 5G10G12G13G17G20G23
 -18321884.859 7  21925002.008 7 -14200121.29648  21924995.63348        48.500
        39.0004
 -24837022.453 8  20289573.570 8 -19339371.59649  20289569.50449        54.000
        46.5004
  -8156991.692 5  23635339.867 5  -6348432.18047  23635336.29347        42.250
        29.2504
 -24444504.322 8  20393852.297 8 -18887512.29449  20393848.00449        52.500
        45.2504
  -2792297.638 3  24702944.484 3  -2062653.47146  24702942.64146        35.750
        22.5004
 -22553530.535 8  20942579.508 8 -17561808.56949  20942574.69949        52.750
        43.5004
 -18289114.656 7  21826744.141 7 -14238062.72549  21826740.15249        49.500
        41.2504
   3029121.859 3  24994785.398 3   -336590.11145  24994782.71545        37.000
        16.7504
 -12898045.692 7  22831816.789 7 -10042864.28248  22831811.63348        48.000
        34.7504
 11  3 11  0  9 30.0000000  0 10G 2G 4G 5G 7G10G12G13G17G20G23
 -18396956.132 7  21910716.336 7 -14258618.37448  21910709.53548        47.750
        39.0004
 -24845195.078 8  20288018.258 8 -19345739.87949  20288013.63349        53.250
        46.5004
  -8237641.301 6  23619992.820 6  -6411275.91447  23619989.60947        42.500
        30.7504
    441836.20713  25318869.070 3

 -24467982.113 7  20389384.430 7 -18905806.63549  20389380.28149        51.250
        45.5004
  -2759562.592 3  24709174.328 3  -2037145.72046  24709171.22346        37.000
        22.7504
 -22546902.176 8  20943840.867 8 -17556643.59049  20943836.43849        52.500
        43.5004
 -18197921.576 7  21844097.438 7 -14167003.22748  21844093.19548        49.500
        40.5004
   3122609.275 3  25012575.766 3   -263742.77045  25012572.25845        36.750
        16.7504
 -12827959.864 6  22845153.711 6  -9988251.99048  22845148.40248        46.000
        34.2504
 11  3 11  0 10  0.0000000  0 10G 2G 4G 5G 7G10G12G13G17G20G23
 -18471909.274 6  21896453.273 6 -14317023.39348  21896446.12148        47.000
        39.2504
 -24853045.690 8  20286524.273 8 -19351857.23449  20286519.77349        53.500
        46.5004
  -8318102.721 5  23604681.023 5  -6473973.07047  23604678.02047        42.250
        30.7504
    363254.641 3  25303914.609 3    287422.38956  25303914.64546        35.750
        20.0005
 -24491073.619 7  20384990.289 7 -18923799.98149  20384985.71149        51.000
        45.2504
  -2726412.224 3  24715483.203 3  -2011314.29346  24715479.44146        37.000
        22.7504
 -22539641.315 7  20945222.398 7 -17550985.76449  20945217.73849        51.500
        43.7504
 -18106381.385 7  21861517.375 7 -14095673.25348  21861513.21548        49.750
        41.0004
   3216052.517 3  25030356.258 3   -190929.76645  25030353.77045        37.000
        16.7504
 -12757463.113 6  22858568.828 6  -9933319.50348  22858562.88748        47.000
        34.7504
 11  3 11  0 10 30.0000000  0 10G 2G 4G 5G 7G10G12G13G17G20G23
 -18546742.728 6  21882212.992 6 -14375335.14948  21882206.36748        47.250
        40.7504
 -24860573.042 8  20285091.875 8 -19357722.69149  20285087.52749        53.750
        46.5004
  -8398375.198 6  23589406.023 6  -6536522.96747  23589403.18047        43.000
        31.7504
    284620.447 2  25288951.336 2    226148.98346  25288951.20746        35.500
        20.2504
 -24513778.787 7  20380669.898 7 -18941492.29349  20380665.38349        50.250
        45.0004
  -2692848.625 5  24721870.742 5  -1985160.84846  24721867.13346        39.250
        23.2504
 -22531747.935 7  20946724.508 7 -17544835.04649  20946719.67249        50.750
        44.0004
 -18014496.521 7  21879002.148 7 -14024074.70348  21878997.65648        49.250
        40.7504
   3309451.415 3  25048129.469 3   -118151.36245  25048127.44145        36.000
        17.2504
 -12686557.275 6  22872062.203 6  -9878068.22948  22872056.41048        46.250
        34.0004
 11  3 11  0 11  0.0000000  0 10G 2G 4G 5G 7G10G12G13G17G20G23
 -18621454.892 6  21867995.609 6 -14433552.39948  21867988.71948        47.250
        40.2504
 -24867776.442 8  20283721.125 8 -19363335.72549  20283716.67649        54.250
        46.5004
  -8478458.659 5  23574165.602 5  -6598925.56847  23574163.70347        41.500
        30.5004
    205936.269 2  25273978.031 2    164836.73446  25273977.43846        34.750
        19.5004
 -24536098.518 7  20376422.625 7 -18958884.26849  20376418.00049        50.000
        44.7504
  -2658873.916 4  24728335.430 4  -1958687.05046  24728331.97346        38.750
        24.5004
 -22523222.632 7  20948346.484 7 -17538191.93549  20948342.05149        50.500
        44.0004
 -17922269.520 7  21896552.734 7 -13952209.58548  21896548.23048        49.500
        40.0004
   3402805.037 4  25065895.586 4    -45408.24845  25065892.17245        37.750
        16.2504
 -12615245.054 7  22885632.477 7  -9822500.29348  22885626.18448        47.500
        34.0004
 11  3 11  0 11 30.0000000  0 10G 2G 4G 5G 7G10G12G13G17G20G23
 -18696043.614 6  21853801.898 6 -14491673.46848  21853794.98048        47.250
        39.5004
 -24874654.641 8  20282412.422 8 -19368695.37249  20282407.82449        53.250
        46.7504
  -8558352.002 6  23558963.656 6  -6661180.05247  23558960.61747        43.000
        30.7504
    127205.401 3  25258996.141 3    103488.10846  25258994.80146        36.250
        19.2504
 -24558032.970 7  20372248.602 7 -18975976.02749  20372243.96949        50.000
        44.7504
  -2624489.538 5  24734879.312 5  -1931894.06046  24734875.12546        40.500
        25.0004
 -22514065.242 7  20950089.094 7 -17531056.26949  20950084.30949        50.500
        43.7504
 -17829702.421 6  21914167.055 6 -13880079.45048  21914163.50448        47.250
        39.0004
   3496112.976 3  25083649.844 3     27299.32345  25083647.99245        36.000
        16.7504
 -12543528.144 6  22899279.469 6  -9766617.02848  22899273.44148        46.500
        34.0004
 11  3 11  0 12  0.0000000  0 10G 2G 4G 5G 7G10G12G13G17G20G23
 -18770509.060 7  21839631.289 7 -14549698.47748  21839625.00848        47.750
        40.0004
 -24881208.096 8  20281165.062 8 -19373801.95749  20281160.76249        53.500
        46.5004
  -8638056.093 5  23543795.180 5  -6723287.04547  23543793.22347        40.250
        30.2504
     48428.989 2  25244004.328 2     42103.89446  25244004.69146        35.500
        19.5004
 -24579583.795 7  20368147.453 7 -18992768.85849  20368143.04349        49.750
        44.7504
  -2589698.876 5  24741499.125 5  -1904784.49346  24741495.75446        41.500
        25.0004
 -22504277.638 7  20951951.742 7 -17523429.52649  20951947.24649        50.500
        44.0004
 -17736798.889 7  21931846.758 7 -13807687.18048  21931842.14848        48.750
        39.5004
   3589373.184 2  25101397.914 2     99969.47945  25101394.53945        35.250
        15.5004
 -12471410.080 6  22913003.344 6  -9710421.17948  22912997.77348        46.250
        34.2504
 11  3 11  0 12 30.0000000  0 10G 2G 4G 5G 7G10G12G13G17G20G23
 -18844849.089 6  21825484.953 6 -14607625.74048  21825478.73848        47.000
        39.5004
 -24887435.278 7  20279980.094 7 -19378654.29049  20279975.95349        51.750
        46.7504
  -8717569.993 6  23528665.031 6  -6785245.83647  23528661.59047        42.750
        28.7504
    -30389.210 4  25229006.328 4    -19312.82546  25229006.68846        37.500
        20.7504
 -24600751.113 7  20364119.680 7 -19009262.83549  20364115.06249        50.250
        44.7504
  -2554503.598 5  24748196.547 5  -1877359.66947  24748193.74647        40.750
        26.7504
 -22493859.704 7  20953934.430 7 -17515311.61249  20953929.74649        50.750
        43.5004
 -17643561.198 7  21949589.133 7 -13735034.45848  21949584.75848        50.000
        40.2504
   3682585.433 3  25119134.656 3

 -12398892.775 6  22926803.062 6  -9653914.22648  22926796.89148        46.250
        34.0004
 11  3 11  0 13  0.0000000  0 10G 2G 4G 5G 7G10G12G13G17G20G23
 -18919061.276 6  21811362.766 6 -14665453.39748  21811356.25848        47.250
        40.5004
 -24893334.474 8  20278857.508 8 -19383251.05949  20278853.10949        54.000
        46.7504
  -8796892.543 6  23513570.328 6  -6847055.53547  23513567.06247        42.500
        29.0004
   -109245.332 4  25214001.195 4    -80759.17546  25214000.44146        37.750
        21.5004
 -24621534.628 7  20360164.531 7 -19025457.76349  20360159.95749        50.500
        44.7504
  -2518904.639 5  24754970.609 5  -1849620.26246  24754967.62546        39.500
        26.0004
 -22482810.831 7  20956036.859 7 -17506702.08049  20956031.98049        51.250
        43.7504
 -17549991.033 7  21967395.148 7 -13662122.68448  21967391.03148        50.250
        39.7504
   3775750.133 1  25136863.367 1

 -12325977.569 6  22940678.141 6  -9597097.25148  22940672.08648        46.500
        34.5004
 11  3 11  0 13 30.0000000  0 10G 2G 4G 5G 7G10G12G13G17G20G23
 -18993144.997 7  21797265.195 7 -14723180.94748  21797258.64148        48.250
        40.0004
 -24898906.141 8  20277797.234 8 -19387592.63249  20277793.02749        52.750
        46.5004
  -8876024.468 6  23498511.883 6  -6908716.71947  23498508.81647        42.750
        30.5004
   -188137.903 3  25198987.391 3   -142233.85246  25198989.12946        36.500
        20.5004
 -24641935.916 7  20356282.359 7 -19041354.84349  20356277.61349        51.000
        45.2504
  -2482905.698 4  24761821.102 4  -1821569.19446  24761818.32046        38.250
        25.2504
 -22471132.808 7  20958258.891 7 -17497602.30549  20958254.49649        50.750
        43.5004
 -17456091.859 7  21985263.367 7 -13588954.55348  21985259.66448        50.000
        39.7504
   3868865.014 1  25154582.539 1

 -12252668.046 6  22954628.922 6  -9539972.97548  22954623.21148        47.000
        34.2504
 11  3 11  0 14  0.0000000  0 10G 2G 4G 5G 7G10G12G13G17G20G23
 -19067098.064 7  21783192.719 7 -14780806.70648  21783186.04748        48.000
        40.0004
 -24904148.487 8  20276799.867 8 -19391677.56649  20276795.15249        54.750
        47.0004
  -8954964.848 5  23483489.805 5  -6970228.61447  23483486.37147        42.000
        29.5004
   -267063.542 2  25183968.102 2   -203734.24246  25183968.63746        34.250
        19.7504
 -24661955.179 7  20352472.789 7 -19056954.25749  20352467.98449        51.250
        45.2504
  -2446508.475 4  24768747.617 4  -1793207.75346  24768744.40246        38.000
        24.2504
 -22458825.792 7  20960600.875 7 -17488012.40349  20960596.84049        51.000
        44.0004
 -17361865.742 7  22003194.500 7 -13515531.67848  22003190.72348        49.750
        39.5004
   3961930.448 1  25172293.164 1

 -12178965.830 6  22968653.758 6  -9482542.71348  22968647.77748        46.000
        34.5004
 11  3 11  0 14 30.0000000  0  9G 2G 4G 5G 7G10G12G13G17G23
 -19140918.133 7  21769145.188 7 -14838328.82048  21769138.07848        47.500
        40.0004
 -24909060.045 8  20275865.156 8 -19395504.74549  20275860.66449        54.000
        46.5004
  -9033711.936 5  23468504.688 5  -7031589.88847  23468500.82047        42.000
        30.5004
   -346018.179 3  25168944.773 3   -265257.24546  25168944.23046        36.500
        20.0004
 -24681591.779 8  20348735.930 8 -19072255.47949  20348731.07449        52.500
        45.2504
  -2409713.311 5  24775749.258 5  -1764536.22546  24775746.60946        40.000
        25.7504
 -22445888.976 7  20963062.625 7 -17477931.74749  20963058.24249        51.000
        44.0004
 -17267314.291 7  22021186.656 7 -13441855.26048  22021182.85248        49.500
        39.7504
 -12104872.073 6  22982753.164 6  -9424807.35648  22982746.93448        46.500
        34.0004
 11  3 11  0 15  0.0000000  0  9G 2G 4G 5G 7G10G12G13G17G23
 -19214606.815 7  21755122.469 7 -14895748.54848  21755115.75848        47.750
        40.0004
 -24913642.654 8  20274993.148 8 -19399075.61349  20274988.50049        54.000
        46.5004
  -9112268.985 6  23453555.930 6  -7092803.10547  23453552.81647        43.000
        31.0004
   -425002.237 5  25153914.242 5   -326803.16346  25153912.92646        40.000
        21.2504
 -24700849.699 7  20345071.297 7 -19087261.63549  20345066.62149        51.250
        45.0004
  -2372526.241 5  24782825.961 5  -1735559.34346  24782822.34846        41.000
        25.0004
 -22432326.140 7  20965643.695 7 -17467363.28649  20965638.89549        50.500
        43.7504
 -17172442.792 7  22039240.516 7 -13367929.46848  22039237.11348        49.500
        41.0004
 -12030392.331 6  22996926.180 6  -9366771.21548  22996920.10248        45.500
        34.0004
 11  3 11  0 15 30.0000000  0  9G 2G 4G 5G 7G10G12G13G17G23
 -19288160.501 6  21741125.195 6 -14953063.09648  21741118.60548        47.250
        40.2504
 -24917894.056 8  20274184.203 8 -19402388.37649  20274179.61749        53.000
        46.7504
  -9190633.628 6  23438643.328 6  -7153866.39247  23438639.87147        42.500
        31.2504
   -504010.909 5  25138879.516 5   -388368.26046  25138878.60546        40.500
        22.7504
 -24719727.733 7  20341479.031 7 -19101971.77249  20341474.40649        51.250
        45.0004
  -2334947.488 5  24789976.906 5  -1706277.25446  24789973.12546        39.750
        22.0004
 -22418136.274 7  20968344.156 7 -17456306.22549  20968338.93049        50.750
        43.7504
 -17077252.544 7  22057354.586 7 -13293755.30548  22057351.31648        49.500
        39.0004
 -11955527.288 6  23011172.461 6  -9308434.84847  23011166.75847        45.250
        33.5004
 11  3 11  0 16  0.0000000  0  9G 2G 4G 5G 7G10G12G13G17G23
 -19361577.049 6  21727154.828 6 -15010270.77448  21727148.21948        47.250
        40.2504
 -24921812.556 8  20273438.297 8 -19405441.74949  20273434.41849        53.500
        46.5004
  -9268804.892 5  23423767.609 5  -7214778.98047  23423765.32447        41.500
        31.7504
   -583040.639 3  25123840.508 3   -449949.66346  25123840.33646        37.000
        22.5004
 -24738225.869 7  20337958.828 7 -19116385.89049  20337954.13749        51.750
        45.0004
  -2296978.258 4  24797201.594 4  -1676690.90046  24797198.35246        38.750
        22.7504
 -22403319.271 7  20971163.336 7 -17444760.48849  20971158.68849        51.000
        43.5004
 -16981745.401 7  22075528.883 7 -13219334.24848  22075525.77748        49.500
        39.5004
 -11880279.078 6  23025492.109 6  -9249799.90747  23025486.23047        44.500
        33.5004
 11  3 11  0 16 30.0000000  0  9G 2G 4G 5G 7G10G12G13G17G23
 -19434855.846 6  21713209.906 6 -15067371.12048  21713204.08248        47.250
        40.2504
 -24925398.639 8  20272756.094 8 -19408236.09449  20272751.26649        52.500
        46.7504
  -9346783.443 6  23408929.414 6  -7275541.40047  23408926.19547        43.250
        31.7504
   -662089.926 2  25108796.219 2   -511546.32446  25108797.03546        35.250
        21.2504
 -24756346.005 7  20334510.680 7 -19130505.47349  20334505.91449        50.500
        45.2504
  -2258622.409 4  24804500.523 4  -1646803.26946  24804498.73046        38.250
        24.0004
 -22387876.832 7  20974101.758 7 -17432727.39249  20974097.39149        50.500
        43.2504
 -16885924.936 7  22093763.016 7 -13144668.99548  22093758.73048        50.250
        39.2504
 -11804650.732 6  23039883.406 6  -9190868.76347  23039877.37547        45.000
        32.5004
 11  3 11  0 17  0.0000000  0  9G 2G 4G 5G 7G10G12G13G17G23
 -19507994.691 7  21699292.195 7 -15124362.39248  21699285.98448        47.500
        40.5004
 -24928650.489 8  20272137.078 8 -19410769.98249  20272133.03149        53.750
        46.7504
  -9424568.284 5  23394126.547 5  -7336152.86047  23394123.30547        42.000
        31.2504
   -741155.007 3  25093751.141 3   -573155.24646  25093751.80946        35.750
        20.5004
 -24774087.753 7  20331134.383 7 -19144330.20049  20331129.84449        52.000
        45.0004
  -2219881.178 5  24811872.750 5  -1616615.34146  24811869.70346        39.500
        22.5004
 -22371809.082 7  20977159.422 7 -17420207.03949  20977154.72749        51.000
        44.0004
 -16789792.905 7  22112055.805 7 -13069760.96248  22112052.88748        49.500
        39.5004
 -11728643.923 6  23054347.289 6  -9131642.71647  23054340.61747        45.000
        32.5004
 11  3 11  0 17 30.0000000  0  9G 2G 4G 5G 7G10G12G13G17G23
 -19580992.415 7  21685401.445 7 -15181243.73248  21685394.03948        47.500
        41.0004
 -24931567.687 8  20271582.156 8 -19413043.11549  20271577.38349        52.750
        46.7504
  -9502159.449 6  23379361.602 6  -7396613.40747  23379358.44147        42.500
        30.7504
   -820233.134 2  25078703.047 2   -634774.34646  25078702.60546        35.500
        20.5004
 -24791452.435 7  20327829.922 7 -19157861.10249  20327825.88749        50.250
        45.0004
  -2180757.420 4  24819318.180 4  -1586129.35246  24819315.34846        38.500
        22.7504
 -22355117.227 7  20980336.156 7 -17407200.38749  20980331.83649        51.250
        43.5004
 -16693352.645 7  22130408.727 7 -12994612.75148  22130404.83248        50.500
        39.7504
 -11652261.403 6  23068882.359 6  -9072123.90647  23068875.78547        45.250
        32.2504
 11  3 11  0 18  0.0000000  0  9G 2G 4G 5G 7G10G12G13G17G23
 -19653846.640 7  21671537.531 7 -15238013.22448  21671531.64148        47.500
        40.7504
 -24934149.008 8  20271090.844 8 -19415054.53249  20271086.19149        54.000
        46.5004
  -9579556.018 6  23364633.562 6  -7456922.34847  23364629.88747        42.500
        31.0004
   -899321.337 3  25063652.484 3   -696401.28546  25063652.55146        37.000
        20.2504
 -24808439.887 7  20324597.648 7 -19171098.07649  20324593.01649        51.500
        45.2504
  -2141252.780 5  24826835.273 5  -1555346.58146  24826832.68846        39.750
        22.2504
 -22337801.251 7  20983631.008 7 -17393707.41349  20983626.40249        50.500
        43.7504
 -16596605.893 7  22148818.742 7 -12919225.73348  22148814.83648        49.500
        38.7504
 -11575505.095 6  23083488.680 6  -9012313.83447  23083481.85247        44.250
        31.5004
 11  3 11  0 18 30.0000000  0  9G 2G 4G 5G 7G10G12G13G17G23
 -19726556.955 7  21657701.719 7 -15294670.60048  21657695.01248        48.000
        40.7504
 -24936394.652 8  20270663.328 8 -19416804.38049  20270658.77049        54.000
        46.5004
  -9656758.673 6  23349942.680 6  -7517080.16547  23349939.18447        43.000
        31.7504
   -978417.556 4  25048601.297 4   -758034.43646  25048601.64146        38.500
        22.0004
 -24825052.050 7  20321436.203 7 -19184042.59949  20321431.86349        51.000
        45.0004
  -2101370.123 4  24834424.719 4  -1524269.22246  24834422.09046        38.000
        21.0004
 -22319863.175 7  20987044.445 7 -17379729.69549  20987039.48849        51.000
        43.5004
 -16499556.559 7  22167286.883 7 -12843602.95748  22167282.75448        50.000
        40.2504
 -11498378.405 6  23098165.062 6  -8952215.12647  23098158.93447        44.750
        32.0004
 11  3 11  0 19  0.0000000  0  9G 2G 4G 5G 7G10G12G13G17G23
 -19799121.009 7  21643892.898 7 -15351214.00848  21643886.39548        48.000
        41.0004
 -24938302.892 8  20270300.258 8 -19418291.30849  20270295.89149        54.250
        46.7504
  -9733766.481 6  23335287.711 6  -7577086.16847  23335284.39547        43.500
        31.0004
  -1057518.108 5  25033548.258 5   -819671.01146  25033548.14146        40.500
        24.2504
 -24841288.636 7  20318346.484 7 -19196694.47549  20318341.77749        51.000
        45.0004
  -2061111.388 4  24842086.758 4  -1492898.83346  24842082.32046        38.250
        20.2504
 -22301302.982 7  20990576.406 7 -17365267.20949  20990571.71949        50.500
        43.0004
 -16402206.460 7  22185811.836 7 -12767745.79848  22185808.25048        49.500
        40.0004
 -11420882.805 6  23112912.133 6  -8891828.98647  23112905.90647        45.500
        32.0004
 11  3 11  0 19 30.0000000  0  9G 2G 4G 5G 7G10G12G13G17G23
 -19871537.349 7  21630112.336 7 -15407642.31448  21630105.84848        48.000
        40.5004
 -24939873.546 8  20270001.445 8 -19419515.19949  20269997.27349        54.500
        46.7504
  -9810579.567 6  23320671.273 6  -7636940.40747  23320667.64147        43.000
        30.2504
  -1136620.477 5  25018496.539 5   -881308.98346  25018496.55946        39.500
        22.5004
 -24857150.723 7  20315327.906 7 -19209054.54649  20315323.52749        51.250
        45.5004
  -2020479.321 4  24849817.359 4  -1461237.52546  24849814.51646        38.500
        21.7504
 -22282121.337 7  20994226.406 7 -17350320.47249  20994221.92649        50.000
        43.2504
 -16304558.379 7  22204393.547 7 -12691656.44748  22204390.39848        50.500
        40.5004
 -11343021.077 6  23127728.969 6  -8831157.54847  23127723.16047        45.000
        32.5004
 11  3 11  0 20  0.0000000  0  9G 2G 4G 5G 7G10G12G13G17G23
 -19943804.510 6  21616360.289 6 -15463954.37548  21616353.79748        47.250
        41.0004
 -24941105.596 8  20269766.977 8 -19420475.22449  20269762.71949        54.500
        46.5004
  -9887197.353 6  23306090.984 6  -7696642.51147  23306087.39547        44.000
        30.5004
  -1215721.784 4  25003442.875 4   -942946.13546  25003442.83246        38.000
        21.2504
 -24872639.197 7  20312380.703 7 -19221123.48849  20312375.80549        52.000
        45.2504
  -1979475.919 4  24857621.305 4  -1429286.90246  24857617.23446        37.500
        20.7504
 -22262319.924 7  20997994.578 7 -17334890.79449  20997989.49249        51.250
        43.2504
 -16206615.024 7  22223031.242 7 -12615337.02748  22223028.61748        49.750
        40.2504
 -11264795.823 6  23142614.555 6  -8770202.85447  23142608.91047        45.000
        32.2504
 11  3 11  0 20 30.0000000  0  9G 2G 4G 5G 7G10G12G13G17G23
 -20015919.904 7  21602637.406 7 -15520148.16948  21602630.39548        48.500
        41.0004
 -24941997.581 8  20269597.180 8 -19421170.28049  20269592.85949        53.500
        47.0004
  -9963619.122 6  23291548.562 6  -7756191.86047  23291544.11347        43.000
        30.7504
  -1294818.300 3  24988390.094 3  -1004579.53446  24988391.04346        36.250
        20.0004
 -24887753.947 7  20309504.320 7 -19232901.21549  20309499.78549        52.000
        45.2504
  -1938102.983 3  24865493.891 3  -1397048.28646  24865490.53946        36.000
        19.2504
 -22241898.555 7  21001880.539 7 -17318978.03049  21001875.80949        51.500
        43.2504
 -16108378.601 7  22241725.211 7 -12538789.23148  22241721.80548        49.750
        39.2504
 -11186208.860 6  23157569.055 6  -8708966.30747  23157563.37947        45.500
        33.0004
 11  3 11  0 21  0.0000000  0  9G 2G 4G 5G 7G10G12G13G17G23
 -20087882.522 7  21588943.633 7 -15576222.91948  21588936.90648        48.000
        41.0004
 -24942549.354 8  20269492.266 8 -19421600.23749  20269488.05149        53.500
        46.7504
 -10039845.038 6  23277042.828 6  -7815588.60647  23277039.87547        43.250
        32.2504
  -1373907.779 4  24973341.422 4  -1066207.57146  24973338.92246        39.000
        20.7504
 -24902496.160 7  20306698.875 7 -19244388.64749  20306694.56249        52.250
        45.2504
  -1896363.991 3  24873436.258 3  -1364524.45346  24873432.69946        37.000
        19.0004
 -22220858.732 7  21005884.320 7 -17302583.37449  21005879.78549        52.250
        43.0004
 -16009852.294 7  22260474.250 7 -12462015.55548  22260470.12948        49.750
        38.2504
 -11107263.204 6  23172592.320 6  -8647450.25147  23172586.41047        45.750
        33.0004
 11  3 11  0 21 30.0000000  0  9G 2G 4G 5G 7G10G12G13G17G23
 -20159691.293 7  21575278.641 7 -15632177.78449  21575271.64549        48.250
        41.2504
 -24942760.478 8  20269451.812 8 -19421764.76549  20269447.64149        53.500
        46.5004
 -10115875.019 6  23262575.430 6  -7874832.67747  23262571.34047        42.750
        32.5004
  -1452987.637 5  24958292.500 5  -1127828.10946  24958292.24246        39.500
        22.5004
 -24916867.049 7  20303964.430 7 -19255586.75749  20303960.04749        51.500
        45.5004
  -1854261.003 4  24881449.570 4  -1331717.02446  24881445.82046        39.000
        21.7504
 -22199201.858 7  21010005.734 7 -17285707.89549  21010000.68449        52.000
        43.7504
 -15911039.338 7  22279277.953 7 -12385018.52448  22279273.96548        48.750
        38.0004
 -11027961.614 6  23187682.922 6  -8585656.85647  23187676.89847        45.250
        33.0004
 11  3 11  0 22  0.0000000  0  9G 2G 4G 5G 7G10G12G13G17G23
 -20231343.920 7  21561643.531 7 -15688010.98648  21561637.34848        48.750
        41.0004
 -24942629.889 8  20269476.742 8 -19421663.03149  20269472.37549        53.750
        46.7504
 -10191708.740 5  23248144.062 5  -7933923.83047  23248141.43447        42.250
        32.0004
  -1532054.540 5  24943247.000 5  -1189438.56046  24943246.40646        40.000
        25.0004
 -24930866.978 7  20301300.156 7 -19266495.78349  20301295.76249        52.000
        45.2504
  -1811796.110 4  24889529.812 4  -1298627.57846  24889525.69546        38.750
        21.5004
 -22176928.485 8  21014243.938 8 -17268352.00849  21014239.22749        52.500
        43.5004
 -15811941.634 7  22298135.523 7 -12307799.60248  22298131.82848        49.250
        38.5004
 -10948306.170 6  23202840.867 6  -8523587.71847  23202834.65647        46.000
        32.0004
 11  3 11  0 22 30.0000000  0  9G 2G 4G 5G 7G10G12G13G17G23
 -20302838.429 7  21548038.805 7 -15743720.97349  21548031.92649        48.500
        41.7504
 -24942156.166 8  20269566.992 8 -19421293.90449  20269562.39549        54.250
        46.5004
 -10267345.128 6  23233751.188 6  -7992861.18747  23233747.93447        43.500
        31.7504
  -1611105.495 4  24928203.359 4  -1251036.55246  24928203.17246        38.750
        24.5004
 -24944496.394 7  20298706.789 7 -19277116.12449  20298702.26249        50.000
        45.5004
  -1768971.329 3  24897678.930 3  -1265257.67846  24897676.12146        36.750
        21.5004
 -22154039.244 7  21018599.992 7 -17250516.22649  21018595.00849        52.000
        43.5004
 -15712561.662 7  22317047.227 7 -12230360.73748  22317043.61748        49.250
        38.5004
 -10868298.850 6  23218065.961 6  -8461244.40647  23218059.20747        45.750
        31.7504
 11  3 11  0 23  0.0000000  0  9G 2G 4G 5G 7G10G12G13G17G23
 -20374173.137 7  21534464.141 7 -15799306.45049  21534457.62549        48.000
        41.5004
 -24941338.571 8  20269722.625 8 -19420656.81449  20269718.25449        53.500
        46.5004
 -10342784.402 6  23219395.500 6  -8051644.97347  23219391.60247        43.500
        32.5004
  -1690137.232 5  24913164.953 5  -1312619.57846  24913165.07446        39.500
        25.0004
 -24957756.021 7  20296183.562 7 -19287448.31949  20296178.94549        50.000
        45.2504
  -1725789.184 3  24905896.656 3  -1231609.32346  24905892.12146        36.000
        21.0004
 -22130535.269 7  21023072.609 7 -17232201.42649  21023067.50849        52.000
        43.0004
 -15612902.022 7  22336011.664 7 -12152703.94448  22336008.06648        49.000
        38.7504
 -10787942.306 6  23233357.242 6  -8398628.96047  23233350.64547        46.250
        31.0004
 11  3 11  0 23 30.0000000  0  9G 2G 4G 5G 7G10G12G13G17G23
 -20445347.072 7  21520919.930 7 -15854766.65349  21520913.19949        48.250
        41.5004
 -24940177.215 8  20269943.602 8 -19419751.85349  20269938.89549        54.000
        46.5004
 -10418026.701 6  23205077.539 6  -8110275.25447  23205074.09847        44.000
        32.0004
  -1769147.457 5  24898129.539 5  -1374185.85346  24898128.71946        40.750
        25.0004
 -24970647.246 7  20293730.469 7 -19297493.43949  20293725.58249        51.500
        45.5004
  -1682252.879 3  24914181.992 3  -1197684.94746  24914178.71146        37.250
        21.2504
 -22106418.161 7  21027662.023 7 -17213408.86849  21027656.90649        52.000
        43.7504
 -15512966.215 7  22355029.016 7 -12074831.98348  22355026.03548        48.250
        38.7504
 -10707239.650 6  23248714.469 6  -8335743.81847  23248707.86347        44.500
        31.5004
 11  3 11  0 24  0.0000000  0  9G 2G 4G 5G 7G10G12G13G17G23
 -20516357.822 7  21507407.047 7 -15910099.70148  21507400.41848        48.000
        41.0004
 -24938670.846 8  20270230.297 8 -19418578.06249  20270225.91049        54.000
        46.7504
 -10493071.525 6  23190796.602 6  -8168751.67747  23190793.14547        43.000
        32.2504
  -1848132.955 4  24883098.828 4  -1435732.88046  24883098.28946        39.000
        24.5004
 -24983170.391 7  20291347.398 7 -19307251.72049  20291342.69949        50.000
        45.2504
  -1638364.304 3  24922532.367 3  -1163486.15246  24922529.34446        36.750
        22.0004
 -22081688.790 8  21032367.867 8 -17194139.21449  21032362.75049        52.500
        43.5004
 -15412756.474 7  22374098.547 7 -11996746.55448  22374095.18848        48.000
        38.5004
 -10626192.810 6  23264137.125 6  -8272590.49447  23264130.39847        46.250
        32.2504
 11  3 11  0 24 30.0000000  0  9G 2G 4G 5G 7G10G12G13G17G23
 -20587203.689 7  21493925.508 7 -15965304.25949  21493919.13349        48.250
        42.0004
 -24936818.325 8  20270582.852 8 -19417134.51849  20270578.65249        53.500
        46.7504
 -10567918.052 6  23176553.781 6  -8227073.60647  23176550.65247        44.500
        32.5004
  -1927090.338 5  24868073.180 5  -1497258.03746  24868071.68446        39.500
        22.5004
 -24995326.064 7  20289034.070 7 -19316723.66849  20289029.87949        51.500
        45.5004
  -1594125.705 3  24930950.961 3  -1129014.61546  24930948.14846        37.250
        22.7504
 -22056347.911 7  21037189.766 7 -17174393.08149  21037185.15649        52.000
        43.2504
 -15312275.325 6  22393219.516 6 -11918449.64748  22393216.24248        46.750
        38.5004
 -10544804.117 6  23279624.984 6  -8209170.79347  23279618.55947        45.750
        32.2504
 11  3 11  0 25  0.0000000  0  9G 2G 4G 5G 7G10G12G13G17G23
 -20657883.399 7  21480475.547 7 -16020379.34349  21480469.06649        48.000
        41.2504
 -24934619.291 7  20271001.250 7 -19415421.00449  20270996.85549        52.250
        46.7504
 -10642566.469 6  23162348.500 6  -8285241.13947  23162345.63347        44.000
        32.2504
  -2006017.065 4  24853053.539 4  -1558759.24846  24853052.91046        37.500
        21.5004
 -25007115.361 7  20286790.789 7 -19325910.14549  20286786.06649        51.000
        45.5004
  -1549539.547 3  24939435.383 3  -1094272.23846  24939432.14146        36.500
        21.0004
 -22030396.657 7  21042128.164 7 -17154171.32949  21042123.30149        51.750
        43.2504
 -15211525.641 7  22412391.734 7 -11839943.50048  22412388.97748        47.750
        38.2504
 -10463076.178 6  23295177.391 6  -8145486.72747  23295171.64847        46.500
        32.2504
 11  3 11  0 25 30.0000000  0  9G 2G 4G 5G 7G10G12G13G17G23
 -20728395.371 7  21467058.070 7 -16075323.74448  21467051.32848        48.500
        41.0004
 -24932073.266 8  20271485.445 8 -19413437.08549  20271481.11349        53.000
        46.5004
 -10717016.930 6  23148181.461 6  -8343254.43547  23148177.47747        43.250
        33.0004
  -2084910.484 5  24838040.414 5  -1620234.49546  24838040.55546        39.750
        24.5004
 -25018539.171 7  20284616.836 7 -19334811.81949  20284612.36349        52.250
        45.5004
  -1504608.831 3  24947984.766 3  -1059261.33446  24947982.68046        36.000
        21.2504
 -22003836.751 7  21047182.188 7 -17133475.30649  21047177.46149        52.000
        43.0004
 -15110510.391 6  22431614.094 6 -11761230.41748  22431610.97348        47.000
        38.0004
 -10381012.059 6  23310793.531 6  -8081540.72147  23310787.64147        45.500
        30.5004
 11  3 11  0 26  0.0000000  0  9G 2G 4G 5G 7G10G12G13G17G23
 -20798737.556 7  21453671.961 7 -16130135.81549  21453665.39149        48.750
        42.0004
 -24929179.472 8  20272036.375 8 -19411182.16849  20272032.17249        53.500
        46.7504
 -10791269.102 6  23134051.562 6  -8401113.24447  23134047.47747        43.000
        32.7504
  -2163767.373 4  24823035.406 4  -1681681.29046  24823034.50846        39.000
        22.5004
 -25029598.165 7  20282512.406 7 -19343429.21749  20282507.70349        51.000
        45.5004
  -1459336.206 3  24956602.016 3  -1023984.06946  24956598.03546        36.750
        22.5004
 -21976669.358 8  21052351.992 8 -17112305.91349  21052347.18449        52.750
        42.2504
 -15009232.298 6  22450886.758 6 -11682312.51848  22450883.73848        47.250
        37.5004
 -10298613.833 6  23326473.602 6  -8017334.36547  23326468.72747        46.500
        31.5004
 11  3 11  0 26 30.0000000  0  9G 2G 4G 5G 7G10G12G13G17G23
 -20868908.048 7  21440319.109 7 -16184814.11649  21440312.12949        49.000
        41.7504
 -24925936.745 8  20272653.438 8 -19408655.37249  20272648.97749        53.000
        46.5004
 -10865322.443 6  23119959.555 6  -8458817.10047  23119955.79747        43.750
        31.7504
  -2242584.605 5  24808036.250 5  -1743097.21446  24808036.32446        39.750
        22.5004
 -25040293.006 7  20280477.430 7 -19351762.86149  20280472.86749        50.250
        45.5004
  -1413723.245 4  24965281.609 4   -988441.57346  24965278.71946        37.500
        23.7504
 -21948895.137 7  21057637.445 7 -17090663.66449  21057632.44549        51.500
        42.5004
 -14907693.924 6  22470208.977 6 -11603191.81248  22470205.72348        47.000
        37.2504
 -10215883.825 6  23342216.992 6  -7952869.47047  23342211.07447        47.000
        30.7504
 11  3 11  0 27  0.0000000  0  9G 2G 4G 5G 7G10G12G13G17G23
 -20938905.086 7  21426999.211 7 -16239357.25049  21426992.61349        49.500
        42.0004
 -24922344.129 8  20273337.188 8 -19405855.94049  20273332.54349        53.250
        46.5004
 -10939176.578 6  23105905.414 6  -8516365.72647  23105901.74247        43.000
        32.0004
  -2321358.875 4  24793045.312 4  -1804479.66646  24793044.85946        38.000
        22.5004
 -25050624.217 7  20278511.484 7 -19359813.16349  20278506.89849        51.000
        45.7504
  -1367772.602 4  24974025.703 4   -952635.99246  24974022.43046        37.750
        23.7504
 -21920515.265 7  21063038.008 7 -17068549.46849  21063033.13349        51.500
        42.7504
 -14805897.466 7  22489579.844 7 -11523869.98148  22489576.66048        48.000
        36.7504
 -10132824.069 6  23358022.445 6  -7888147.64247  23358016.96147        46.500
        31.5004
 11  3 11  0 27 30.0000000  0  9G 2G 4G 5G 7G10G12G13G17G23
 -21008727.378 7  21413712.523 7 -16293764.22649  21413705.94949        50.000
        41.7504
 -24918401.431 8  20274087.227 8 -19402783.69349  20274082.85949        52.750
        46.7504
 -11012831.733 6  23091889.312 6  -8573759.31547  23091885.93847        43.000
        33.5004
  -2400087.863 4  24778064.094 4  -1865826.73446  24778064.23046        39.000
        24.5004
 -25060593.218 7  20276614.547 7 -19367581.20849  20276609.89149        50.750
        45.2504
  -1321487.140 3  24982832.656 3   -916569.49146  24982830.50446        36.000
        23.7504
 -21891531.386 7  21068553.352 7 -17045964.62849  21068548.69549        50.750
        43.0004
 -14703846.505 6  22508999.617 6 -11444349.83948  22508996.66848        46.750
        37.0004
 -10049438.165 6  23373890.305 6  -7823171.65647  23373884.61347        46.750
        31.7504
 11  3 11  0 28  0.0000000  0  9G 2G 4G 5G 7G10G12G13G17G23
 -21078373.204 7  21400459.133 7 -16348033.68249  21400452.37949        50.000
        42.0004
 -24914108.065 8  20274904.289 8 -19399438.22849  20274899.82449        53.750
        46.5004
 -11086287.309 6  23077911.180 6  -8630997.36547  23077908.00447        44.250
        33.5004
  -2478768.401 5  24763092.195 5  -1927136.07846  24763090.93846        40.250
        25.5004
 -25070200.697 8  20274785.977 8 -19375067.56249  20274781.69549        52.500
        45.2504
  -1274869.692 3  24991703.602 3   -880244.29546  24991701.36346        36.000
        23.7504
 -21861944.818 8  21074183.625 8 -17022910.16449  21074178.65249        52.750
        43.0004
 -14601543.760 7  22528467.648 7 -11364633.53448  22528464.20748        48.000
        37.5004
  -9965728.220 6  23389819.727 6  -7757943.19047  23389814.14547        47.000
        31.0004
 11  3 11  0 28 30.0000000  0  9G 2G 4G 5G 7G10G12G13G17G23
 -21147840.172 7  21387240.016 7 -16402163.78849  21387233.17649        49.750
        42.0004
 -24909462.973 8  20275788.141 8 -19395818.70549  20275783.99649        53.250
        46.5004
 -11159543.441 6  23063970.844 6  -8688080.02148  23063967.91048        44.000
        33.7504
  -2557397.765 5  24748129.047 5  -1988405.54947  24748129.59447        40.500
        27.2504
 -25079447.139 7  20273026.375 7 -19382272.59749  20273022.26249        52.250
        45.2504
  -1227922.369 3  25000638.000 3   -843662.03446  25000635.51646        37.250
        24.2504
 -21831756.713 7  21079928.141 7 -16999386.96249  21079923.03149        51.500
        43.0004
 -14498991.533 6  22547982.867 6 -11284722.81548  22547979.20348        47.000
        36.2504
  -9881696.449 6  23405810.422 6  -7692463.94747  23405805.27747        46.250
        31.2504
 11  3 11  0 29  0.0000000  0  9G 2G 4G 5G 7G10G12G13G17G23
 -21217126.354 7  21374054.930 7 -16456153.01249  21374048.39149        50.000
        42.2504
 -24904465.365 8  20276739.367 8 -19391924.46549  20276734.93849        53.500
        46.5004
 -11232599.763 6  23050068.609 6  -8745006.98348  23050065.71148        45.500
        33.7504
  -2635972.155 5  24733176.688 5  -2049632.15446  24733175.83646        39.750
        25.7504
 -25088333.529 7  20271335.578 7 -19389197.05449  20271330.77749        51.750
        45.5004
  -1180647.656 4  25009634.641 4   -806824.64846  25009631.23046        38.500
        23.5004
 -21800968.584 7  21085786.594 7 -16975396.20349  21085781.80949        52.250
        43.0004
 -14396192.907 6  22567544.594 6 -11204620.09048  22567540.93048        46.250
        36.2504
  -9797345.799 6  23421862.133 6  -7626736.23647  23421856.41047        46.250
        31.2504
 11  3 11  0 29 30.0000000  0  9G 2G 4G 5G 7G10G12G13G17G23
 -21286230.423 7  21360904.984 7 -16510000.33249  21360898.12149        48.750
        42.0004
 -24899114.249 8  20277757.617 8 -19387754.77749  20277753.35949        53.250
        46.5004
 -11305455.813 6  23036204.969 6  -8801777.88947  23036201.31647        44.500
        33.0004
  -2714488.804 4  24718234.492 4  -2110813.85446  24718234.82046        39.000
        24.0004
 -25096860.350 7  20269712.859 7 -19395841.33849  20269708.97349        50.250
        45.5004
  -1133047.885 4  25018692.102 4   -769734.05346  25018689.45746        38.250
        23.5004
 -21769581.233 7  21091759.672 7 -16950938.54449  21091754.92649        51.000
        42.7504
 -14293149.965 6  22587153.266 6 -11124326.99548  22587150.15248        45.750
        36.5004
  -9712678.149 6  23437974.039 6  -7560761.51647  23437968.16047        46.500
        31.7504
 11  3 11  0 30  0.0000000  0  9G 2G 4G 5G 7G10G12G13G17G23
 -21355150.759 7  21347790.500 7 -16563704.48249  21347783.22349        49.250
        42.2504
 -24893409.611 8  20278843.156 8 -19383309.60449  20278839.10949        52.750
        46.7504
 -11378111.781 6  23022378.953 6  -8858392.87948  23022375.55548        44.250
        34.0004
  -2792945.472 4  24703305.375 4  -2171948.76946  24703304.54746        38.750
        24.5004
 -25105029.034 7  20268158.156 7 -19402206.56349  20268154.01649        51.000
        45.5004
  -1085126.021 4  25027811.375 4   -732392.42746  25027808.18446        37.500
        22.7504
 -21737596.480 7  21097846.406 7 -16926015.35649  21097841.36749        51.250
        42.7504
 -14189866.168 6  22606807.883 6 -11043846.24048  22606804.59448        47.000
        36.0004
  -9627696.620 6  23454145.031 6  -7494542.22547  23454139.77347        45.500
        31.7504
 11  3 11  0 30 30.0000000  0  9G 2G 4G 5G 7G10G12G13G17G23
 -21423885.287 7  21334710.422 7 -16617263.84049  21334703.75849        49.000
        42.7504
 -24887350.310 8  20279996.070 8 -19378588.05249  20279992.02749        53.000
        46.5004
 -11450567.083 6  23008590.711 6  -8914851.51048  23008587.53948        46.000
        34.5004
  -2871338.475 5  24688387.594 5  -2233034.07746  24688387.20346        39.500
        26.0004
 -25112839.619 7  20266672.016 7 -19408292.74349  20266667.37149        51.000
        45.7504
  -1036884.592 5  25036991.773 5   -694801.77646  25036988.94546        39.500
        22.5004
 -21705015.479 8  21104046.148 8 -16900627.57149  21104041.17649        52.500
        42.2504
 -14086343.803 6  22626507.398 6 -10963179.57848  22626504.43448        45.500
        35.7504
  -9542403.395 6  23470375.672 6  -7428080.05447  23470370.18847        45.500
        30.5004
 11  3 11  0 31  0.0000000  0  9G 2G 4G 5G 7G10G12G13G17G23
 -21492432.539 7  21321666.305 7 -16670677.27449  21321659.38349        49.500
        42.5004
 -24880936.163 8  20281216.773 8 -19373590.01549  20281212.76649        53.500
        46.7504
 -11522822.174 6  22994840.898 6  -8971154.15147  22994837.83647        46.000
        33.2504
  -2949665.013 6  24673483.234 6  -2294067.59147  24673482.61747        42.500
        27.2504
 -25120293.645 7  20265253.828 7 -19414101.08849  20265249.15249        51.000
        45.5004
   -988326.206 4  25046231.352 4   -656964.16846  25046229.00446        37.500
        22.5004
 -21671839.810 7  21110359.430 7 -16874776.40649  21110354.35949        52.250
        42.0004
 -13982585.985 6  22646251.805 6 -10882329.45048  22646249.27748        45.500
        36.5004
  -9456801.263 6  23486665.797 6  -7361377.19947  23486660.16847        46.500
        30.0004
 11  3 11  0 31 30.0000000  0  9G 2G 4G 5G 7G10G12G13G17G23
 -21560790.179 7  21308658.562 7 -16723942.96449  21308652.01249        49.750
        42.2504
 -24874165.872 8  20282505.266 8 -19368314.49749  20282501.00449        53.500
        47.0004
 -11594876.220 6  22981129.820 6  -9027300.10647  22981126.24247        45.250
        33.0004
